resto_id,name,cuisine_type,is_official,lat,long,location,average_price,overall_rating,rating_rasa,rating_suasana,rating_harga_rasa,rating_pelayanan,rating_kebersihan,open_time,payment_method,wifi,delivery,smoking_area,outdor_area,24hour,100%_halal,VIP_room,reservation,parking_area,alcohol,vegetarian
1642422817648878,Terai Coffeatery,[ Kafe ],True,-6.8878444921528885,107.62," Jl. Tubagus Ismail Raya No. 175, Dago Atas, Bandung ", Di bawah Rp. 50.000 /orang ,4.32,4.3,4.5,4.3,4.2,4.3,Senin - Minggu (09:00 - 20:00),"Tunai,Debet,Ovo",yes,no,yes,yes,no,yes,no,yes,yes,no,no
164242282518111,Equator Coffee & Gallery,[ Kafe ],False,-6.899537,107.61045800000001," Jl. Sulanjana No. 32, Dago Bawah, Bandung ", Rp. 50.000 - Rp. 100.000 /orang ,4.32,4.2,4.6,3.8,4.4,4.6,"Senin - Jumat (09:00 - 21:00), Sabtu - Minggu (10:00 - 22:00)","Tunai,Visa,Master,Debet,Go-pay,Ovo",yes,no,yes,yes,no,yes,yes,yes,yes,no,no
1642422830535959,One Eighty Coffee and Music,[ Kafe ],True,-6.8938630000000005,107.612421," Jl. Ganeca No. 3, Dago Bawah, Bandung ", Rp. 50.000 - Rp. 100.000 /orang ,4.11,4.1,4.5,3.8,4.0,4.2,"Senin - Sabtu (08:00 - 21:00), Minggu Tutup","Tunai,Visa,Master,Debet,Go-pay,Ovo",yes,no,yes,yes,no,yes,yes,yes,yes,no,no
1642422843615989,Two Hands Full,[ Kafe ],False,-6.892483,107.6127496," Jl. Ir. H. Juanda No. 113, Dago Bawah, Bandung ( Alamat Lama: Jl. Sukajadi No. 198A, Sukajadi, Bandung ) ", Rp. 50.000 - Rp. 100.000 /orang ,4.04,4.3,4.1,4.1,3.7,4.0,Senin - Minggu (08:00 - 20:00),"Tunai,Visa,Master,Debet,Ovo",yes,no,yes,yes,no,no,no,no,yes,yes,no
164242285404013,Noah's Barn,[ Kafe ],True,-6.887150999999999,107.612748," Jl. Dayang Sumbi No. 2, Dago Bawah, Bandung ", Rp. 50.000 - Rp. 100.000 /orang ,4.1,4.0,4.5,3.7,4.0,4.3,Senin - Minggu (11:00 - 23:00),"Tunai,Visa,Master,Debet",yes,no,yes,yes,no,yes,yes,yes,yes,no,no
1642422862786623,Old Ben's,[ Kafe ],False,-6.900378,107.613671," Jl. Diponegoro No. 3A, Dago Bawah, Bandung ", Rp. 50.000 - Rp. 100.000 /orang ,4.03,4.3,4.5,3.4,3.9,4.0,"Senin - Jumat (10:00 - 21:00), Sabtu - Minggu (08:00 - 22:00)","Tunai,Visa,Master,Debet,Go-pay,Ovo",yes,no,yes,yes,no,yes,no,yes,yes,no,no
1642422870321724,Gyu Kaku,[ Jepang ],False,-6.899381,107.613491," Jl. Pangeran Kornel No. 7, Dago Bawah, Bandung ", Di atas Rp. 200.000 /orang ,4.24,4.5,4.2,3.9,4.5,4.2,Senin - Minggu (10:00 - 22:00),"Tunai,Visa,Master,Debet,Go-pay,Ovo",yes,no,no,no,no,yes,yes,yes,yes,yes,no
1642422876226716,Armor Kopi Leuit,[ Kafe ],False,-6.858281,107.632173," Jl. Bukit Pakar Utara No. 10, Dago Atas, Bandung ", Di bawah Rp. 50.000 /orang ,3.97,3.7,4.6,3.9,3.8,3.8,"Senin - Jumat (08:00 - 21:00), Sabtu - Minggu (08:00 - 22:00)","Tunai,Debet,Ovo",no,no,yes,yes,no,yes,no,yes,yes,no,no
1642422883939183,GrindJoe Coffee - Moxy Hotel,[ Kafe ],True,-6.900271000000001,107.612103," Moxy Hotel, Lantai Lobby Jl. Ir. H. Juanda No. 69, Dago Bawah, Bandung ", Di bawah Rp. 50.000 /orang ,4.26,4.1,4.4,3.9,4.4,4.5,Senin - Minggu (10:00 - 21:00),"Tunai,Debet,Go-pay,Ovo",yes,no,yes,yes,no,yes,no,no,yes,no,no
1642422888153678,Chingu Korean Fan Cafe,[ Korea ],False,-6.901199,107.60991100000001," Jl. Sawunggaling No. 10, Dago Bawah, Bandung ", Rp. 50.000 - Rp. 100.000 /orang ,3.97,3.8,4.3,3.8,3.9,4.1,Senin - Minggu (10:00 - 21:00),"Tunai,Visa,Master,Debet,Go-pay,Ovo",yes,no,yes,yes,no,yes,yes,yes,yes,no,no
1642422898545291,Kopi Warga,[ Kafe ],False,-6.901101,107.612796," Jl. Ir. H. Juanda No. 48, Dago Bawah, Bandung ", Di bawah Rp. 50.000 /orang ,4.09,4.2,4.4,3.8,3.9,4.2,Senin - Minggu (09:00 - 22:00),"Tunai,Visa,Master,Debet,Go-pay,Ovo",yes,no,yes,yes,no,yes,yes,yes,yes,no,no
1642422905518882,Cafe D'Pakar,[ Indonesia ],False,-6.846717999999999,107.64980200000001," Jl. Sekejolang, Dago Atas, Bandung ", Di bawah Rp. 50.000 /orang ,3.93,3.8,4.8,3.8,3.8,3.6,"Senin - Jumat (10:00 - 21:00), Sabtu - Minggu (09:00 - 21:00)","Tunai,Visa,Master,Debet",yes,no,yes,yes,no,yes,no,yes,yes,no,no
1642422914803346,Justus Steakhouse,[ Barat ],False,-6.901233,107.61180900000001," Jl. Ir. H. Juanda No. 59, Dago Bawah, Bandung ", Rp. 100.000 - Rp. 200.000 /orang ,4.16,4.2,4.3,4.0,4.1,4.2,Senin - Minggu (10:00 - 21:00),"Tunai,Visa,Master,Debet,Go-pay,Dana",yes,no,yes,yes,no,yes,yes,yes,yes,no,no
164242292139991,The Stone Cafe,[ Kafe ],False,-6.865246000000001,107.626971," Jl. Rancakendal Luhur No. 5 (Gerbang Dago Resort), Dago Atas, Bandung ", Rp. 50.000 - Rp. 100.000 /orang ,4.18,4.1,4.7,3.6,4.2,4.3,"Senin - Jumat (11:00 - 22:00), Sabtu (11:00 - 23:00), Minggu (11:00 - 22:00)","Tunai,Visa,Master,Debet",yes,no,yes,yes,no,yes,no,yes,yes,yes,no
1642422925443555,Kartika Sari,[ Toko Roti dan Kue ],False,-6.897492999999999,107.61221699999999," Jl. Ir. H. Juanda No. 85, Dago Bawah, Bandung ", Di bawah Rp. 50.000 /orang ,4.01,4.5,3.7,4.2,3.7,3.9,"Senin - Jumat (07:30 - 17:30), Sabtu - Minggu (07:30 - 18:00)","Tunai,Visa,Master,Debet,Go-pay,Ovo",no,no,no,no,no,yes,no,no,yes,no,no
1642422932799457,Smash and Shake,[ Kafe ],False,-6.900192,107.611942," Jl. Sulanjana No. 1, Dago Bawah, Bandung ", Di bawah Rp. 50.000 /orang ,4.12,4.2,4.4,4.0,3.8,4.2,Senin - Minggu (10:30 - 21:00),"Tunai,Visa,Master,Debet",yes,no,yes,yes,no,yes,no,yes,yes,no,no
1642422938035352,Eat Boss,[ Kafe ],True,-6.897381,107.613056," Jl. Ir. H. Juanda No. 72, Dago Bawah, Bandung ", Rp. 50.000 - Rp. 100.000 /orang ,3.95,3.8,4.1,4.3,3.7,3.9,"Senin - Sabtu (12:00 - 21:00), Minggu (08:00 - 21:00)","Tunai,Visa,Master,Debet,Go-pay,Ovo",yes,no,yes,yes,no,yes,no,yes,yes,no,no
164242294472456,Parc.C,[ Kafe ],False,-6.882451,107.61381100000001," Jl. Kidang Pananjung No. 5C, Dago Atas, Bandung ", Di bawah Rp. 50.000 /orang ,4.26,4.0,4.7,4.0,4.4,4.1,Senin - Minggu (10:00 - 22:00),"Tunai,Visa,Master,Debet",yes,no,yes,no,no,yes,no,yes,yes,no,no
1642422948005566,The Harvest,[ Toko Kue ],False,-6.905316,107.610348," Jl. Ir. H. Juanda No. 11, Dago Bawah, Bandung ", Rp. 100.000 - Rp. 200.000 /orang ,4.09,4.6,4.0,3.7,4.0,4.2,Senin - Minggu (08:00 - 22:00),"Tunai,Visa,Master,Debet,Go-pay,Ovo,Dana",yes,yes,yes,yes,no,yes,no,yes,yes,no,no
1642422953507792,Mimiti Coffee & Space,[ Kafe ],False,-6.8640393,107.6266865," Jl. Bukit Pakar Timur No. 7, Dago Atas, Bandung ( Alamat Lama: Jl. Sumur Bandung No. 14, Dago Bawah, Bandung ) ", Di bawah Rp. 50.000 /orang ,3.92,3.9,4.3,3.6,3.8,4.0,Senin - Minggu (08:00 - 21:00),"Tunai,Visa,Master,Debet,Go-pay,Ovo",yes,no,yes,yes,no,yes,no,yes,yes,no,no
1642422962926142,Pizza Hut,,False,-6.900961,107.612499," Jl. Ir. H. Juanda No. 48, Dago Bawah, Bandung ", Rp. 50.000 - Rp. 100.000 /orang ,4.13,4.4,4.1,3.8,4.3,4.1,Senin - Minggu (10:00 - 23:00),"Tunai,Visa,Master,Debet,Go-pay,Ovo,Dana",yes,yes,yes,yes,no,yes,no,yes,yes,no,no
164242296667031,Warung Pasta,[ Italia ],False,-6.893517999999999,107.6125," Jl. Ganeca No. 4, Dago Bawah, Bandung ", Rp. 50.000 - Rp. 100.000 /orang ,3.99,3.9,4.1,4.0,3.9,4.0,Senin - Minggu (11:00 - 20:30),"Tunai,Visa,Master,Debet,Go-pay,Ovo",yes,no,yes,yes,no,yes,yes,yes,yes,no,no
1642422972443075,Mister Donut,[ Donat ],False,-6.901922,107.612218," Superindo Jl. Ir. H. Juanda No. 44, Dago Bawah, Bandung ", Di bawah Rp. 50.000 /orang ,3.9,4.1,4.0,3.5,3.8,4.0,Senin - Minggu (08:00 - 22:00),"Tunai,Visa,Master,Debet,Ovo,Dana",yes,no,yes,yes,no,yes,no,yes,yes,no,no
1642422981053203,Terminale Gelato & Coffee Express,[ Es Krim ],False,-6.900907000000001,107.611741," Living Plaza Dago, Lantai Upper Ground Jl. Ir. H. Juanda No. 61 - 63, Dago Bawah, Bandung ", Di bawah Rp. 50.000 /orang ,3.93,4.2,4.1,3.6,3.9,3.9,Senin - Minggu (10:00 - 23:00),"Tunai,Debet,Ovo",yes,no,yes,yes,no,yes,no,yes,yes,no,no
1642422987703209,Buttercup Signature Boulangerie - Hotel Four Points by Sheraton,[ Kafe ],True,-6.901314,107.61240600000001," Hotel Four Points by Sheraton, Lantai Lobby Jl. Ir. H. Juanda No. 46, Dago Bawah, Bandung ", Rp. 50.000 - Rp. 100.000 /orang ,3.99,4.0,4.6,3.2,3.8,4.3,Senin - Minggu (09:00 - 20:00),"Tunai,Visa,Master,Debet,Go-pay,Dana",yes,no,yes,yes,no,yes,yes,yes,yes,yes,no
1642422993227915,Kinokimi,[ Kafe ],False,-6.901441999999999,107.61100400000001," Jl. Ranggamalela No. 6 - 8, Dago Bawah, Bandung ", Di bawah Rp. 50.000 /orang ,3.96,4.1,4.2,3.6,3.9,4.1,Senin - Minggu (08:00 - 22:00),"Tunai,Visa,Master,Debet,Go-pay,Ovo",yes,no,yes,yes,no,yes,no,no,yes,no,no
1642422999236512,Daily Routine Coffee,[ Kafe ],False,-6.879242999999999,107.62032099999999," Jl. Kanayakan Bawah No. 1, Dago Atas, Bandung ", Di bawah Rp. 50.000 /orang ,4.35,5.0,4.3,4.5,4.0,4.0,Senin - Minggu (07:30 - 22:00),Tunai,no,no,yes,no,no,yes,no,no,yes,no,no
1642423002314513,The Parlor,[ Kafe ],True,-6.869621,107.62813700000001," Jl. Rancakendal Luhur No. 9, Dago Atas, Bandung ", Rp. 50.000 - Rp. 100.000 /orang ,3.87,3.7,4.5,3.5,3.8,4.0,"Senin - Jumat (12:00 - 21:00), Sabtu - Minggu (11:00 - 22:00)","Tunai,Visa,Master,Debet,Go-pay,Ovo",yes,no,yes,yes,no,yes,yes,yes,yes,no,no
1642423009246267,Yagami Ramen House,[ Jepang ],True,-6.884569,107.61353799999999," Jl. Ir. H. Juanda No. 185, Dago Atas, Bandung ", Di bawah Rp. 50.000 /orang ,3.85,4.0,4.0,4.0,3.6,3.8,Senin - Minggu (10:00 - 21:00),"Tunai,Debet,Go-pay,Ovo",yes,no,yes,no,no,yes,no,yes,yes,no,no
1642423016458939,Wale (Warung Lela),[ Indonesia ],False,-6.872178999999999,107.62796999999999," Jl. Kupa No. 6, Dago Atas, Bandung ", Di bawah Rp. 50.000 /orang ,3.87,3.9,4.5,3.6,3.6,3.8,Senin - Minggu (08:00 - 20:00),"Tunai,Debet",no,no,yes,yes,no,yes,no,yes,yes,no,no
1642423022923972,Lisung,[ Indonesia ],False,-6.858828999999999,107.63743400000001," Jl. Bukit Pakar Timur No. 111, Dago Atas, Bandung ", Rp. 50.000 - Rp. 100.000 /orang ,4.16,4.2,5.0,3.8,4.0,3.8,"Senin - Jumat (12:00 - 21:00), Sabtu - Minggu (10:00 - 23:00)","Tunai,Visa,Master,Debet",yes,no,yes,no,no,yes,no,yes,yes,no,no
1642423025905249,Chagiya Korean Suki & BBQ,[ Korea ],False,-6.901199,107.60991100000001," Chingu Korean Fan Cafe Jl. Sawunggaling No. 10, Dago Bawah, Bandung ", Rp. 50.000 - Rp. 100.000 /orang ,3.91,3.9,4.5,3.4,3.8,3.9,Senin - Minggu (10:00 - 22:00),"Tunai,Visa,Master,Debet,Go-pay,Ovo",yes,no,yes,yes,no,yes,yes,yes,yes,no,no
1642423032333128,Juice For You,[ Kafe ],False,-6.902209,107.61008999999999," Jl. Sawunggaling No. 4, Dago Bawah, Bandung ", Di bawah Rp. 50.000 /orang ,3.89,4.0,3.8,4.1,3.8,3.8,Senin - Minggu (09:00 - 21:00),"Tunai,Debet,Go-pay,Ovo,Dana",yes,no,yes,yes,no,yes,no,yes,yes,no,no
1642423038684994,Mana Foo & Cof,[ Kafe ],False,-6.854423,107.645675," Jl. Cibengang No. 17 (Dekat Sosis Kraton), Dago Atas, Bandung ", Di bawah Rp. 50.000 /orang ,3.91,3.3,4.9,3.7,3.8,3.9,Senin - Minggu (11:00 - 22:00),"Tunai,Visa,Master,Debet,Go-pay,Ovo",yes,no,yes,yes,no,yes,no,yes,yes,yes,no
1642423046400913,Kopi Selasar,[ Kafe ],False,-6.858741,107.63665," Jl. Bukit Pakar Timur No. 100, Dago Atas, Bandung ", Rp. 50.000 - Rp. 100.000 /orang ,3.91,3.9,4.5,3.5,3.7,4.0,"Senin - Jumat (10:00 - 18:00), Sabtu - Minggu (10:00 - 21:00)","Tunai,Visa,Master,Debet,Go-pay",yes,no,yes,no,no,yes,no,yes,yes,yes,no
1642423052396597,Skyline,[ Kafe ],False,-6.85831,107.638719," Jl. Bukit Pakar Timur No. 108, Dago Atas, Bandung ", Rp. 50.000 - Rp. 100.000 /orang ,3.74,3.6,4.6,3.3,3.3,3.9,Senin - Minggu (10:00 - 21:00),"Tunai,Visa,Master,Debet",yes,no,yes,yes,no,yes,no,yes,yes,yes,no
1642423064017979,Brewspace Coffee & Space,[ Kafe ],True,-6.899291000000001,107.61541100000001," Jl. Prabu Dimuntur No. 22, Dago Bawah, Bandung ", Di bawah Rp. 50.000 /orang ,4.03,3.6,4.6,3.6,4.0,4.3,Senin - Minggu (08:00 - 22:00),"Tunai,Visa,Master,Debet,Go-pay,Ovo",yes,no,yes,yes,no,yes,yes,yes,yes,no,no
1642423070880466,Kurva Coffee,[ Kafe ],False,-6.864577000000001,107.623628," Jl. Ir. H. Juanda No. 476, Dago Atas, Bandung ", Di bawah Rp. 50.000 /orang ,3.95,4.1,4.1,4.1,3.8,3.6,Senin - Minggu (15:00 - 23:00),"Tunai,Debet,Ovo",yes,no,yes,yes,no,yes,no,yes,yes,no,no
1642423075382551,Cascara Coffee,[ Kafe ],False,-6.845077000000001,107.654002," Jl. Sekejolang (Pertigaan Tebing Keraton), Dago Atas, Bandung ", Di bawah Rp. 50.000 /orang ,3.97,3.6,4.6,3.9,3.9,3.9,"Senin - Kamis (08:00 - 21:00), Jumat (08:00 - 23:00), Sabtu - Minggu (08:00 - 24:00)","Tunai,Debet,Ovo",yes,no,yes,yes,no,yes,no,yes,yes,no,no
1642423080692439,Kopi Ireng,[ Kafe ],False,-6.8581460000000005,107.63841399999998," Jl. Bukit Pakar Timur No. 1, Dago Atas, Bandung ", Rp. 50.000 - Rp. 100.000 /orang ,4.03,3.8,4.5,4.0,4.2,3.7,Senin - Minggu (13:00 - 24:00),"Tunai,Visa,Master,Debet,Ovo",yes,no,yes,yes,no,yes,no,yes,yes,no,no
1642423085226476,DIDAGO Cafe,[ Kafe ],True,-6.904749000000001,107.61034599999999," Jl. Ir. H. Juanda No. 21, Dago Bawah, Bandung ", Rp. 50.000 - Rp. 100.000 /orang ,3.89,3.8,4.2,3.5,3.7,4.3,"Senin - Kamis (09:00 - 21:00), Jumat - Minggu (08:00 - 21:00)","Tunai,Visa,Master,Debet,Go-pay,Ovo",yes,no,yes,yes,no,yes,yes,yes,yes,no,no
1642423091923074,Sierra,"[ Indonesia,Barat,Italia ]",False,-6.863436999999999,107.629107," Jl. Bukit Pakar Timur No. 33, Dago Atas, Bandung ", Rp. 100.000 - Rp. 200.000 /orang ,3.98,3.6,4.5,3.3,4.0,4.5,Senin - Minggu (11:00 - 21:00),"Tunai,Visa,Master,Debet,Go-pay",yes,no,yes,yes,no,yes,yes,yes,yes,no,no
1642423096096575,Orofi Cafe,[ Kafe ],False,-6.862796,107.633544," Jl. Lembah Pakar Timur No. 99, Dago Atas, Bandung ", Rp. 50.000 - Rp. 100.000 /orang ,3.78,3.4,4.6,3.1,3.7,4.0,"Senin - Jumat (14:00 - 21:30), Sabtu - Minggu (12:00 - 22:00)","Tunai,Visa,Master,Debet",yes,no,yes,yes,no,yes,yes,yes,yes,yes,no
1642423107608482,Congo,[ Barat ],False,-6.867419,107.62791000000001," Jl. Rancakendal Luhur No. 8, Dago Atas, Bandung ", Rp. 50.000 - Rp. 100.000 /orang ,3.87,4.1,4.4,3.4,3.4,4.2,"Senin - Jumat (10:00 - 22:00), Sabtu (10:00 - 22:30), Minggu (10:00 - 22:00)","Tunai,Visa,Master,Debet",yes,no,yes,yes,no,yes,yes,yes,yes,yes,no
1642423112026046,Disebut Kopi,[ Kafe ],True,-6.896613057818433,107.61," Eduplex Co-working Space, Lantai 1 Jl. Ir. H. Juanda No. 84, Dago Bawah, Bandung ", Di bawah Rp. 50.000 /orang ,4.2,4.0,4.0,4.0,4.4,4.6,Senin - Minggu (16:00 - 23:00),"Tunai,Debet,Go-pay,Ovo",yes,no,yes,yes,no,yes,no,no,yes,no,no
1642423115853223,Jadid Coffee,[ Kafe ],False,-6.917389994994125,107.66," Ruko Puri Dago Jl. Terusan Jakarta No. 368, Antapani, Bandung ( Alamat Lama: Jl. Pajajaran No. 4, Pajajaran, Bandung ) ", Di bawah Rp. 50.000 /orang ,4.03,4.3,3.4,4.3,4.1,4.0,Senin - Minggu (07:00 - 22:00),"Tunai,Debet,Ovo",yes,no,yes,yes,no,yes,no,yes,no,no,no
1642423118851207,Tian Jing Lou - Hotel InterContinental Bandung Dago Pakar,[ China ],False,-6.866488,107.642046," Hotel InterContinental Bandung Dago Pakar, Lantai Lobby Jl. Resort Dago Pakar Raya No. 2B, Dago Atas, Bandung ", Rp. 100.000 - Rp. 200.000 /orang ,4.12,4.2,4.2,4.0,4.2,4.0,"Senin - Jumat (16:00 - 22:00), Sabtu - Minggu (08:00 - 14:00, 16:00 - 22:00)","Tunai,Visa,Master,Debet",yes,no,no,no,no,yes,no,yes,yes,yes,no
1642423123252031,McDonald's,,False,-6.8849789999999995,107.613501," Jl. Ir. H. Juanda No. 181 - 183, Dago Atas, Bandung ", Di bawah Rp. 50.000 /orang ,3.78,4.2,3.6,3.5,3.8,3.8,24 Jam,"Tunai,Visa,Master,Debet",yes,yes,yes,yes,yes,yes,no,yes,yes,no,no
1642423130281291,Saffron Restaurant - Hotel Four Points by Sheraton,[ Indonesia ],True,-6.901314,107.61240600000001," Hotel Four Points by Sheraton, Lantai Lobby Jl. Ir. H. Juanda No. 46, Dago Bawah, Bandung ", Rp. 100.000 - Rp. 200.000 /orang ,4.15,4.3,4.8,3.8,4.3,3.8,Senin - Minggu (06:00 - 22:00),"Tunai,Visa,Master,Debet",yes,no,yes,yes,no,yes,yes,yes,yes,yes,no
1642423133192015,Massimo Gelato,[ Es Krim ],False,-6.875328,107.61853799999999," District Dago Jl. Ir. H. Juanda No. 339, Dago Atas, Bandung ", Di bawah Rp. 50.000 /orang ,4.12,4.2,4.0,4.0,4.2,4.2,"Senin - Kamis (11:00 - 23:00), Jumat - Sabtu (11:00 - 24:00), Minggu (11:00 - 23:00)","Tunai,Debet,Go-pay,Ovo",yes,no,yes,yes,no,yes,yes,yes,yes,no,no
1642423136280071,Bakso Rusuk Samanhudi,[ Indonesia ],False,-6.877541000000001,107.617396," Jl. Ir. H. Juanda No. 342, Dago Atas, Bandung ", Di bawah Rp. 50.000 /orang ,3.91,4.1,3.4,4.2,4.0,3.8,"Senin - Kamis (09:00 - 22:00), Jumat - Minggu (08:00 - 01:00)","Tunai,Go-pay",yes,no,yes,yes,no,yes,no,yes,yes,no,no
1642423139435745,The Valley Bistro Cafe,[ Barat ],False,-6.863503,107.633994," Jl. Lembah Pakar Timur No. 28, Dago Atas, Bandung ", Rp. 50.000 - Rp. 100.000 /orang ,4.08,4.2,4.8,3.4,3.8,4.2,Senin - Minggu (12:00 - 21:00),"Tunai,Visa,Master,Debet",yes,no,yes,yes,no,yes,no,yes,yes,no,no
1642423144053401,Makmur Jaya Coffee Roaster,[ Kafe ],False,-6.900416000000001,107.60975," Jl. Sawunggaling No. 22, Dago Bawah, Bandung ", Di bawah Rp. 50.000 /orang ,4.33,4.3,4.3,4.7,4.3,4.0,Senin - Minggu (07:00 - 21:00),"Tunai,Visa,Master,Debet,Go-pay,Ovo,Dana",yes,no,yes,yes,no,yes,no,no,yes,no,no
1642423145915303,Warung Taru (Rumah Kayu),[ Indonesia ],False,-6.86579,107.621196," Jl. Ir. H. Juanda No. 437, Dago Atas, Bandung ", Di bawah Rp. 50.000 /orang ,3.82,4.1,4.1,3.8,3.4,3.8,Senin - Minggu (07:30 - 23:00),"Tunai,Visa,Master,Debet",no,no,yes,no,no,yes,no,yes,yes,no,no
1642423150084468,Damai Restaurant - Hotel InterContinental Bandung Dago Pakar,"[ Indonesia,Barat,Italia ]",False,-6.866488,107.642046," Hotel InterContinental Bandung Dago Pakar, Lantai Lobby Jl. Resort Dago Pakar Raya No. 2B, Dago Atas, Bandung ", Rp. 100.000 - Rp. 200.000 /orang ,4.08,4.0,4.6,3.0,4.4,4.4,Senin - Minggu (06:00 - 23:00),"Tunai,Visa,Master,Debet",yes,no,yes,yes,no,yes,yes,yes,yes,yes,no
1642423152810507,Warung Kopi Imah Babaturan,[ Indonesia ],False,-6.898002,107.607725," Jl. Kebon Bibit No. 3, Dago Bawah, Bandung ", Di bawah Rp. 50.000 /orang ,3.7,4.0,3.6,3.8,3.5,3.5,Senin - Minggu (08:00 - 22:00),"Tunai,Debet,Go-pay,Ovo",yes,no,yes,yes,no,yes,no,yes,yes,no,no
1642423159907265,MAKA Gallery Cafe,"[ Indonesia,Barat ]",False,-6.8481309999999995,107.62687199999999," Jl. Dago Giri No. 168, Dago Atas, Bandung ", Di bawah Rp. 50.000 /orang ,3.91,3.9,4.4,3.6,3.9,3.9,"Senin - Kamis (10:00 - 22:00), Jumat - Sabtu (07:00 - 23:00), Minggu (07:00 - 22:00)","Tunai,Visa,Master,Debet,Go-pay",yes,no,yes,yes,no,yes,no,yes,yes,yes,no
1642423165740962,Seventh Dose,[ Kafe ],False,-6.900631,107.613202," Jl. Diponegoro No. 6 (Lantai 7), Dago Bawah, Bandung ", Rp. 50.000 - Rp. 100.000 /orang ,3.76,3.9,3.9,3.4,3.7,3.8,Senin - Minggu (11:00 - 22:00),"Tunai,Visa,Master,Debet,Go-pay,Ovo",yes,yes,yes,yes,no,yes,no,yes,yes,yes,no
1642423173207511,Kanay Coffee & Culture,[ Kafe ],False,-6.877907,107.619262," Jl. Kanayakan No. 18, Dago Atas, Bandung ", Di bawah Rp. 50.000 /orang ,3.87,3.6,4.3,3.8,3.9,3.9,"Senin - Kamis (11:00 - 22:00), Jumat (14:00 - 22:00), Sabtu - Minggu (11:00 - 22:00)",Tunai,yes,no,yes,yes,no,yes,no,yes,yes,no,no
1642423178242653,Caffetto Roastery,[ Kafe ],False,-6.8846685262503176,107.6," Jl. Ir. H. Juanda No. 185, Dago Atas, Bandung ( Alamat Lama: Jl. Veteran No. 34A, Veteran, Bandung ) ", Di bawah Rp. 50.000 /orang ,3.86,4.4,3.4,4.1,3.7,3.6,"Senin - Kamis (08:00 - 21:00), Jumat - Minggu (08:00 - 22:00)","Tunai,Go-pay,Ovo,Dana",yes,no,yes,no,no,yes,no,no,yes,no,no
1642423182342934,Cafe Halaman,[ Kafe ],True,-6.885363000000001,107.611741," Jl. Tamansari No. 92, Dago Bawah, Bandung ", Rp. 50.000 - Rp. 100.000 /orang ,3.87,3.6,4.4,3.5,3.9,4.0,"Senin - Jumat (10:00 - 22:00), Sabtu - Minggu (09:00 - 22:00)","Tunai,Visa,Master,Debet,Go-pay,Ovo",yes,yes,yes,yes,no,yes,no,yes,yes,no,no
1642423186430509,Warung Salse,[ Indonesia ],False,-6.845567,107.629194," Colaborea Jl. Dago Giri No. 101, Dago Atas, Bandung ", Di bawah Rp. 50.000 /orang ,3.87,3.5,4.4,3.5,4.1,3.9,"Selasa - Kamis (11:00 - 21:00), Jumat - Sabtu (10:00 - 22:00), Minggu (11:00 - 21:00), Senin Tutup","Tunai,Visa,Master,Debet,Go-pay,Ovo",yes,no,yes,yes,no,yes,no,yes,yes,no,no
1642423193116644,Cocorico,"[ Barat,Indonesia,Jepang ]",False,-6.862959,107.629499," Jl. Bukit Pakar Timur No. 19, Dago Atas, Bandung ", Rp. 100.000 - Rp. 200.000 /orang ,3.78,3.8,4.3,3.6,3.2,4.0,"Senin - Kamis (10:00 - 22:00), Jumat - Sabtu (10:00 - 24:00), Minggu (10:00 - 22:00)","Tunai,Visa,Master,Debet,Go-pay,Ovo",yes,no,yes,yes,no,yes,yes,yes,yes,yes,no
1642423197049754,JurnalRisa Coffee,[ Kafe ],False,-6.885913597870099,107.61," Jl. Sumur Bandung No. 14, Dago Bawah, Bandung ", Di bawah Rp. 50.000 /orang ,4.1,4.0,4.5,3.5,4.3,4.3,Senin - Minggu (08:00 - 21:00),"Tunai,Visa,Master,Debet",yes,no,yes,yes,no,yes,no,yes,yes,no,no
1642423200454335,Kanoko Coffee,[ Kafe ],False,-6.876074000000001,107.61591499999999," 2510 Indekost/Roetjiin Jl. Dago Asri I No. 24, Dago Atas, Bandung ", Di bawah Rp. 50.000 /orang ,3.96,3.8,4.6,3.6,4.0,3.8,Senin - Minggu (07:00 - 21:30),"Tunai,Debet,Go-pay,Ovo",yes,no,yes,yes,no,yes,no,no,yes,yes,no
1642423204107281,Reveuse Resto,"[ Barat,Italia,Indonesia ]",False,-6.885211999999999,107.61889599999999," Jl. Tubagus Ismail Raya No. 34, Dago Atas, Bandung ", Rp. 50.000 - Rp. 100.000 /orang ,3.96,3.8,4.6,3.6,3.6,4.2,"Senin - Jumat (10:00 - 21:00), Sabtu - Minggu (10:00 - 22:00)","Tunai,Visa,Master,Debet",yes,no,yes,yes,no,yes,yes,yes,yes,no,no
1642423207411482,Tizi's Cakeshop & Resto,[ Barat ],False,-6.882886,107.61376399999999," Jl. Kidang Pananjung No. 3, Dago Atas, Bandung ", Rp. 100.000 - Rp. 200.000 /orang ,3.83,4.3,3.9,3.6,3.6,3.8,Senin - Minggu (11:00 - 21:00),"Tunai,Visa,Master,Debet",yes,no,yes,yes,no,yes,no,no,yes,no,no
1642423211203155,Chatime,[ Bubble Tea ],False,-6.900907000000001,107.611741," Living Plaza Dago, Lantai Upper Ground Jl. Ir. H. Juanda No. 61 - 63, Dago Bawah, Bandung ", Di bawah Rp. 50.000 /orang ,3.78,3.9,3.8,3.7,3.6,3.9,"Senin - Jumat (10:00 - 22:00), Sabtu (10:00 - 23:00), Minggu (10:00 - 22:00)","Tunai,Visa,Master,Debet,Go-pay,Ovo",yes,yes,yes,yes,no,yes,no,yes,yes,no,no
1642423216638494,Coca Suki Restaurant,[ Thailand ],False,-6.862522,107.63023000000001," Jl. Bukit Pakar Timur No. 24, Dago Atas, Bandung ", Rp. 100.000 - Rp. 200.000 /orang ,4.04,4.0,4.6,2.4,4.6,4.6,"Senin - Jumat (11:00 - 21:45), Sabtu - Minggu (11:00 - 22:00)","Tunai,Visa,Master,Debet,Go-pay,Ovo",yes,no,yes,yes,no,yes,yes,yes,yes,yes,no
1642423221999447,Nasi Telur Babak Belur,[ Indonesia ],False,-6.878672,107.612587," Jl. Cisitu Indah No. 4, Dago Atas, Bandung ", Di bawah Rp. 50.000 /orang ,3.86,4.0,3.7,4.0,3.6,4.0,Senin - Minggu (09:00 - 21:00),"Tunai,Go-pay,Ovo",yes,no,yes,yes,no,yes,no,no,yes,no,no
1642423226614192,Syura Coffee,[ Kafe ],False,-6.880803,107.61621000000001," Jl. Ir. H. Juanda No. 278, Dago Atas, Bandung ", Di bawah Rp. 50.000 /orang ,4.15,3.8,4.0,4.3,4.3,4.5,Senin - Minggu (08:00 - 21:00),"Tunai,Visa,Master,Debet,Go-pay,Ovo",yes,no,yes,yes,no,yes,no,yes,no,no,no
1642423230187715,Shin Men Japanese Resto,[ Jepang ],False,-6.862939999999999,107.62961399999999," Jl. Bukit Pakar Timur No. 19, Dago Atas, Bandung ( Alamat Lama: Paris Van Java, Lantai Ground (Resort Level), Jl. Sukajadi No. 137 - 139, Sukajadi, Bandung ) ", Rp. 50.000 - Rp. 100.000 /orang ,3.8,4.1,3.7,3.3,3.7,4.2,"Senin - Kamis (10:00 - 22:00), Jumat - Sabtu (10:00 - 24:00), Minggu (10:00 - 22:00)","Tunai,Visa,Master,Debet,Go-pay,Ovo",yes,no,yes,yes,no,yes,yes,yes,yes,no,no
1642423233716234,Selatan Jakarta,[ Kafe ],False,-6.897703,107.60603," Jl. Kebon Bibit Tengah No. 24, Dago Bawah, Bandung ( Alamat Lama: DolarAsia, Jl. Ir. H. Juanda No. 91, Dago Bawah, Bandung ) ", Di bawah Rp. 50.000 /orang ,3.83,4.4,3.1,4.3,4.0,3.3,"Selasa - Minggu (14:00 - 21:00), Senin Tutup",Tunai,no,no,yes,yes,no,yes,no,no,no,no,no
1642423236242366,Roemah Kopi,[ Kafe ],False,-6.8706059999999995,107.628395," Jl. Rancakendal Luhur No. 7, Dago Atas, Bandung ", Rp. 50.000 - Rp. 100.000 /orang ,4.07,4.3,5.0,4.0,3.3,3.7,"Senin - Rabu (09:00 - 23:00), Jumat (09:00 - 23:00), Sabtu (09:00 - 24:00), Minggu (09:00 - 23:00), Kamis Tutup","Tunai,Visa,Master,Debet",yes,no,yes,yes,no,yes,no,yes,yes,no,no
1642423237928419,Coffee Toffee,[ Kafe ],True,-6.883888000000001,107.605956," Jl. Siliwangi No. 14, Dago Bawah, Bandung ", Rp. 50.000 - Rp. 100.000 /orang ,3.78,3.4,4.4,3.3,3.8,3.9,Senin - Minggu (08:00 - 23:00),"Tunai,Visa,Master,Debet,Go-pay,Ovo,Dana",yes,no,yes,yes,no,yes,no,yes,yes,no,no
1642423241339993,BreadTalk,[ Toko Roti dan Kue ],False,-6.902367,107.609829," Jl. Sawunggaling No. 1, Dago Bawah, Bandung ", Di bawah Rp. 50.000 /orang ,4.05,4.0,4.3,3.8,3.8,4.5,Senin - Minggu (08:00 - 22:00),"Tunai,Visa,Master,Debet",yes,yes,yes,yes,no,yes,no,no,yes,no,no
1642423244141829,Bubur Ayam Serbu Rame,[ Indonesia ],False,-6.883255999999999,107.61133600000001," Jl. Cisitu (Samping Kecamatan Coblong), Dago Atas, Bandung ", Di bawah Rp. 50.000 /orang ,3.87,4.2,3.3,4.2,4.2,3.5,Senin - Minggu (06:00 - 10:00),Tunai,no,no,yes,no,no,yes,no,no,no,no,no
1642423246833318,Padang Merdeka,[ Indonesia ],False,-6.900291,107.614001," Jl. Diponegoro No. 7, Dago Bawah, Bandung ", Rp. 50.000 - Rp. 100.000 /orang ,4.2,4.3,4.3,3.7,4.3,4.3,Senin - Minggu (10:00 - 20:00),"Tunai,Debet,Ovo",yes,no,yes,yes,no,yes,yes,yes,yes,no,no
1642423249537838,372 Kopi,[ Kafe ],False,-6.859592,107.62977099999999," Jl. Pakar Kulon No. 112, Dago Atas, Bandung ( Alamat Lama: Jl. Ir. H. Juanda No. 372, Dago Atas, Bandung ) ", Di bawah Rp. 50.000 /orang ,3.57,3.6,4.2,3.6,3.3,3.1,Senin - Minggu (08:00 - 21:00),"Tunai,Debet",yes,no,yes,yes,no,yes,no,yes,yes,no,no
1642423256315681,Scangkir Kopi,[ Kafe ],False,-6.891764,107.613336," Jl. Ir. H. Juanda No. 116 (Depan Jet Set), Dago Bawah, Bandung ", Di bawah Rp. 50.000 /orang ,4.3,4.0,5.0,5.0,3.5,4.0,Senin - Minggu (11:00 - 01:00),Tunai,yes,no,yes,no,no,yes,no,yes,yes,no,no
1642423258788116,Mie Tek Tek Anglo,[ Indonesia ],False,-6.881888000000001,107.615895," Jl. Ir. H. Juanda (Sebelah Art Cafe & Restaurant), Dago Atas, Bandung ", Di bawah Rp. 50.000 /orang ,4.2,4.3,4.0,4.0,4.7,4.0,Senin - Minggu (17:00 - 24:00),Tunai,no,no,yes,no,no,yes,no,no,no,no,no
1642423262359341,RM Dago Panyawangan,[ Indonesia ],False,-6.891364,107.61294299999999," Jl. Ir. H. Juanda No. 127, Dago Bawah, Bandung ", Rp. 50.000 - Rp. 100.000 /orang ,4.0,4.3,4.0,3.8,4.0,4.0,Senin - Minggu (10:00 - 23:00),"Tunai,Visa,Master,Debet,Go-pay,Ovo",yes,yes,yes,yes,no,yes,no,yes,yes,yes,no
164242326472557,Utara Cafe,[ Kafe ],False,-6.850242999999999,107.64591100000001," Jl. Bukit Pakar Utara (Arah Tebing Keraton), Dago Atas, Bandung ", Rp. 50.000 - Rp. 100.000 /orang ,3.6,3.1,4.5,3.4,3.3,3.7,Senin - Minggu (11:00 - 21:00),"Tunai,Visa,Master,Debet",yes,no,yes,yes,no,yes,no,yes,yes,yes,no
1642423272896556,Gajua Kopi,[ Kafe ],False,-6.9018630000000005,107.60965800000001," Jl. Sawunggaling No. 7, Dago Bawah, Bandung ", Di bawah Rp. 50.000 /orang ,3.66,3.6,4.2,3.0,3.9,3.6,Senin - Minggu (09:00 - 22:30),"Tunai,Ovo",yes,no,yes,yes,no,yes,no,yes,yes,no,no
164242327827182,I Scream for Ice Cream,[ Es Krim ],False,-6.90165,107.609346," Jl. Hariangbanga No. 17, Dago Bawah, Bandung ", Di bawah Rp. 50.000 /orang ,3.88,4.0,4.0,3.8,3.8,3.8,Senin - Minggu (10:00 - 17:00),"Tunai,Debet",no,no,yes,yes,no,yes,no,no,yes,no,no
1642423280498966,Dendeng Batokok Dago,[ Indonesia ],False,-6.876755999999999,107.618008," Jl. Ir. H. Juanda No. 354, Dago Atas, Bandung ", Di bawah Rp. 50.000 /orang ,3.92,4.6,3.4,3.8,3.8,4.0,Senin - Minggu (11:00 - 23:00),"Tunai,Debet,Go-pay",no,no,yes,no,no,yes,no,no,yes,no,no
1642423283116266,Kedai Mie Dago,[ Indonesia ],False,-6.882458,107.61516599999999," Jl. Ir. H. Juanda No. 209, Dago Atas, Bandung ", Di bawah Rp. 50.000 /orang ,3.8,4.3,3.3,4.0,3.6,3.9,Senin - Minggu (10:00 - 22:00),"Tunai,Visa,Master,Debet,Ovo",yes,yes,yes,yes,no,yes,no,yes,yes,no,no
1642423286824827,Roppan,[ Jepang ],False,-6.902367,107.609829," Jl. Sawunggaling No. 1, Dago Bawah, Bandung ", Rp. 50.000 - Rp. 100.000 /orang ,3.95,4.3,4.0,3.8,3.8,4.0,Senin - Minggu (08:00 - 22:00),"Tunai,Visa,Master,Debet",yes,no,yes,yes,no,yes,no,yes,yes,no,no
1642423289422057,Steak N' Toast,[ Barat ],True,-6.9014690000000005,107.611052," Ruang8 Jl. Ranggamalela No. 8, Dago Bawah, Bandung ", Rp. 50.000 - Rp. 100.000 /orang ,3.96,4.0,4.2,2.6,4.8,4.2,Senin - Minggu (09:30 - 20:00),"Tunai,Visa,Master,Debet,Go-pay,Ovo",yes,no,yes,yes,no,yes,no,yes,yes,no,no
1642423292487992,Sigli Jaya,[ Indonesia ],False,-6.884803999999999,107.615136," Jl. Tubagus Ismail Raya No. 22, Dago Atas, Bandung ", Di bawah Rp. 50.000 /orang ,4.0,5.0,3.3,5.0,3.0,3.7,Senin - Minggu (19:00 - 02:00),Tunai,no,no,yes,no,no,yes,no,no,no,no,no
1642423294553764,Fashion E Pasta,[ Italia ],False,-6.858592999999999,107.637459," Jl. Bukit Pakar Timur No. 112, Dago Atas, Bandung ", Rp. 100.000 - Rp. 200.000 /orang ,3.9,4.5,4.0,3.5,3.8,3.8,"Selasa - Kamis (12:00 - 22:00), Jumat - Minggu (12:00 - 23:00), Senin Tutup","Tunai,Visa,Master,Debet,Ovo",yes,yes,yes,no,no,no,no,yes,yes,yes,no
1642423298524819,Rumah Ronin,[ Kafe ],False,-6.887346000000001,107.617621," Jl. Sekeloa Utara I No. 77, Dago Atas, Bandung ", Di bawah Rp. 50.000 /orang ,4.13,4.0,4.0,4.3,4.7,3.7,Senin - Minggu (15:00 - 23:00),Tunai,yes,no,yes,no,no,yes,no,no,yes,no,no
1642423300956898,Kedai Timbel Dago,[ Indonesia ],False,-6.892189999999999,107.61287," Jl. Ir. H. Juanda No. 117, Dago Bawah, Bandung ", Di bawah Rp. 50.000 /orang ,3.87,4.5,3.2,3.8,3.8,4.0,Senin - Minggu (10:00 - 15:00),"Tunai,Debet",no,no,yes,no,no,yes,no,no,yes,no,no
1642423303615722,Kyomi,[ Kafe ],False,-6.889678,107.61358899999999," Jl. Ir. H. Juanda No. 130, Dago Bawah, Bandung ( Alamat Lama: Jl. Ir. H. Juanda No. 420, Dago Atas, Bandung ) ", Di bawah Rp. 50.000 /orang ,3.66,3.9,3.8,3.4,3.6,3.6,Senin - Minggu (08:00 - 22:00),"Tunai,Debet,Go-pay,Ovo",yes,no,yes,yes,no,yes,no,yes,yes,no,no
164242330912679,Atanapi Coffee Camp,[ Kafe ],True,-6.857232000000001,107.63610600000001," Jl. Bukit Pakar Utara No. 50, Dago Atas, Bandung ", Di bawah Rp. 50.000 /orang ,3.74,3.4,4.4,3.4,3.7,3.7,Senin - Minggu (08:00 - 22:00),"Tunai,Visa,Master,Debet,Go-pay,Ovo,Dana",yes,no,yes,yes,no,yes,no,yes,yes,no,no
1642423312404339,Hanamasa,[ Jepang ],False,-6.901077000000001,107.61256399999999," Jl. Ir. H. Juanda No. 48, Dago Bawah, Bandung ", Di atas Rp. 200.000 /orang ,4.0,4.0,3.8,3.8,4.3,4.3,Senin - Minggu (11:00 - 21:00),"Tunai,Visa,Master,Debet",yes,no,no,no,no,yes,no,yes,yes,no,no
164242331644189,Waroeng Steak & Shake,[ Barat ],True,-6.900371000000001,107.60961299999998," Jl. Tamansari No. 54, Dago Bawah, Bandung ", Di bawah Rp. 50.000 /orang ,3.63,4.1,3.1,4.1,3.7,3.3,"Senin - Kamis (11:00 - 22:00), Jumat (13:00 - 22:00), Sabtu - Minggu (11:00 - 22:00)","Tunai,Visa,Master,Debet",no,no,yes,yes,no,yes,no,yes,yes,no,no
1642423320866105,Sam's Strawberry Corner,[ Indonesia ],False,-6.876989,107.61741699999999," Jl. Ir. H. Juanda No. 315, Dago Atas, Bandung ", Rp. 50.000 - Rp. 100.000 /orang ,4.4,5.0,4.0,4.0,4.5,4.5,"Senin - Jumat (09:00 - 21:00), Sabtu - Minggu (10:00 - 22:00)","Tunai,Visa,Master,Debet",yes,no,yes,yes,no,yes,no,yes,yes,no,no
1642423322144239,Kozi Coffee,[ Kafe ],False,-6.869055,107.61724199999999," Jl. Bukit Dago Utara No. 28, Dago Atas, Bandung ", Rp. 50.000 - Rp. 100.000 /orang ,3.87,4.0,4.7,4.3,3.3,3.0,Senin - Minggu (08:00 - 21:00),"Tunai,Debet,Go-pay,Ovo",yes,no,yes,yes,no,yes,no,yes,yes,no,no
1642423324397326,BijiKopling,[ Kafe ],False,-6.8830279999999995,107.609541," Jl. Sangkuriang No. 16 (Depan Beverly Dago Apartement), Dago Atas, Bandung ", Di bawah Rp. 50.000 /orang ,3.93,4.3,4.3,4.0,3.3,3.7,Senin - Minggu (07:00 - 21:00),"Tunai,Debet,Go-pay,Ovo",yes,no,yes,yes,no,yes,no,no,no,no,no
1642423326519905,The Soko Coffee Tea Chocolate,[ Kafe ],False,-6.866281,107.63003400000001," Jl. Resort Dago Pakar No. 19, Dago Atas, Bandung ", Rp. 50.000 - Rp. 100.000 /orang ,3.73,3.4,4.1,3.1,3.9,4.1,Senin - Minggu (10:00 - 20:00),"Tunai,Debet,Go-pay,Ovo",yes,no,yes,yes,no,yes,no,yes,yes,no,no
164242333084913,Jatinangor House,[ Minuman ],False,-6.878660000000001,107.6126," Jl. Cisitu Indah No. 4, Dago Atas, Bandung ", Di bawah Rp. 50.000 /orang ,3.6,4.0,3.2,4.4,3.0,3.4,Senin - Minggu (09:00 - 22:00),"Tunai,Go-pay",yes,no,yes,yes,no,yes,no,yes,yes,no,no
164242333402931,District Dago Cafe & Resto,[ Kafe ],True,-6.875328,107.61853799999999," Jl. Ir. H. Juanda No. 339, Dago Atas, Bandung ", Rp. 50.000 - Rp. 100.000 /orang ,3.69,3.9,4.0,3.3,3.3,4.0,"Senin - Jumat (10:00 - 21:00), Sabtu - Minggu (08:00 - 21:00)","Tunai,Visa,Master,Debet,Go-pay,Ovo",yes,no,yes,yes,no,yes,yes,yes,yes,yes,no
1642423336803712,Ayam Goreng & Bakar Si Bungsu,[ Indonesia ],False,-6.894918,107.60908300000001," Jl. Gelap Nyawang No. 10 (Seberang Gedung MBA ITB), Dago Bawah, Bandung ", Di bawah Rp. 50.000 /orang ,3.57,4.6,3.0,4.4,3.1,2.7,Senin - Minggu (16:00 - 24:00),Tunai,no,no,yes,no,no,yes,no,no,yes,no,no
1642423340835991,Ayamayaman,[ Indonesia ],False,-6.88409,107.614921," Jl. Tubagus Ismail Raya No. 5C, Dago Atas, Bandung ", Di bawah Rp. 50.000 /orang ,3.71,4.0,3.4,3.6,4.0,3.6,Senin - Minggu (07:00 - 21:00),"Tunai,Visa,Master,Debet,Go-pay,Ovo",yes,no,yes,yes,no,yes,no,yes,yes,no,no
1642423344318291,Dasa Rooftop,[ Kafe ],False,-6.861977,107.63406200000001," Jl. Bukit Pakar Timur IV No. 8, Dago Atas, Bandung ", Rp. 50.000 - Rp. 100.000 /orang ,3.55,3.7,4.2,2.8,3.5,3.7,"Jumat (15:30 - 23:00), Sabtu (11:30 - 23:00), Minggu (11:30 - 22:00), Senin - Kamis Tutup","Tunai,Visa,Master,Debet,Ovo",yes,no,yes,yes,no,yes,no,yes,yes,no,no
1642423351064774,Pipinos,[ Toko Kue ],False,-6.901440063618165,107.61," Ruang8 Jl. Ranggamalela No. 8, Dago Bawah, Bandung ( Alamat Lama: Parahyangan Residence, Foodstep, Jl. Ciumbuleuit No. 125, Ciumbuleuit, Bandung ) ", Di bawah Rp. 50.000 /orang ,4.3,5.0,3.5,4.0,4.5,4.5,Senin - Minggu (08:00 - 20:00),"Tunai,Visa,Master,Debet",no,no,yes,yes,no,yes,no,no,yes,no,no
1642423352247349,Garden Coffee,[ Kafe ],False,-6.895188,107.61136299999998," Banyu Leisure Jl. Ciung Wanara No. 10 (PDAM Tirtawening), Dago Bawah, Bandung ( Alamat Lama: Garden Hostel, Jl. Ir. H. Juanda No. 294B, Dago Atas, Bandung ) ", Di bawah Rp. 50.000 /orang ,3.53,3.4,4.2,3.2,3.4,3.4,Senin - Minggu (08:00 - 22:00),"Tunai,Debet,Go-pay,Ovo,Dana",yes,no,yes,yes,no,yes,no,yes,yes,no,no
1642423359435634,Escape Tropical Bar,[ Kafe ],False,-6.884946095020987,107.61," Sanggar Mitra Area Saraga Jl. Siliwangi No. 14, Dago Bawah, Bandung ", Di bawah Rp. 50.000 /orang ,3.9,4.0,3.5,4.0,4.5,3.5,Senin - Minggu (07:00 - 22:00),"Tunai,Debet,Ovo",yes,no,yes,yes,no,yes,no,yes,yes,no,no
1642423361823291,Kopi Bawah Pohon,[ Kafe ],False,-6.864406,107.631449," Jl. Lembah Pakar Timur II No. 7, Dago Atas, Bandung ", Di bawah Rp. 50.000 /orang ,4.0,3.7,4.3,4.0,4.0,4.0,Senin - Minggu (10:00 - 21:00),Tunai,not sure,not sure,not sure,not sure,no,yes,not sure,not sure,not sure,not sure,no
1642423364215683,Hawayu Coffee & Eatery,[ Kafe ],False,-6.90245,107.61021399999998," Jl. Sawunggaling No. 2, Dago Bawah, Bandung ", Di bawah Rp. 50.000 /orang ,4.3,4.0,4.5,4.0,4.5,4.5,Senin - Minggu (08:00 - 22:00),"Tunai,Visa,Master,Debet,Go-pay,Ovo,Dana",yes,no,yes,yes,no,yes,no,yes,yes,no,no
1642423365711859,Pizza Place,[ Italia ],False,-6.892548,107.61284099999999," Jl. Ir. H. Juanda No. 113, Dago Bawah, Bandung ", Rp. 50.000 - Rp. 100.000 /orang ,3.67,3.9,3.2,3.8,3.6,3.9,Senin - Minggu (09:00 - 20:00),"Tunai,Visa,Master,Debet,Go-pay,Ovo",yes,no,yes,yes,no,yes,no,no,yes,no,no
1642423370050919,Ngopilok,[ Kafe ],True,-6.90542917481964,107.60700000000001," Jl. Tamansari Bawah No. 4, Dago Bawah, Bandung ", Di bawah Rp. 50.000 /orang ,5.0,5.0,5.0,5.0,5.0,5.0,Senin - Minggu (10:00 - 23:00),"Tunai,Go-pay,Ovo,Dana",yes,no,yes,yes,no,yes,no,no,yes,no,no
1642423373039174,Nata D'Koppi,[ Kafe ],False,-6.866249000000001,107.621179," Jl. Ir. H. Juanda No. 472, Dago Atas, Bandung ", Di bawah Rp. 50.000 /orang ,5.0,5.0,5.0,5.0,5.0,5.0,"Senin - Jumat (09:00 - 22:00), Sabtu - Minggu (09:00 - 24:00)","Tunai,Debet",yes,no,yes,yes,no,yes,no,yes,yes,no,no
1642423374134452,Filosofi Kopi - Creative Restart Hotel,[ Kafe ],False,-6.864856,107.626406," Creative Restart Hotel, Lantai 1 Jl. Ir. H. Juanda No. 92, Dago Atas, Bandung ", Di bawah Rp. 50.000 /orang ,5.0,5.0,5.0,5.0,5.0,5.0,"Senin - Jumat (08:00 - 20:00), Sabtu - Minggu (07:00 - 20:00)","Tunai,Debet",yes,no,yes,yes,no,yes,no,no,yes,no,no
1642423375798773,J.CO Donuts & Coffee,[ Kafe ],False,-6.902367,107.609829," Jl. Sawunggaling No. 1, Dago Bawah, Bandung ", Rp. 50.000 - Rp. 100.000 /orang ,3.93,4.3,4.0,3.3,4.0,4.0,Senin - Minggu (08:00 - 23:00),"Tunai,Visa,Master,Debet",yes,yes,yes,yes,no,yes,no,no,yes,no,no
1642423377633399,Fitzroy Cafe,[ Kafe ],True,-6.86815,107.633204," Jl. Sentra Dago Pakar Raya No. C1, Dago Atas, Bandung ", Rp. 50.000 - Rp. 100.000 /orang ,4.1,4.0,5.0,4.0,3.5,4.0,"Senin - Jumat (09:00 - 21:00), Sabtu (09:00 - 22:00), Minggu (08:00 - 21:00)","Tunai,Visa,Master,Debet,Go-pay,Ovo",yes,yes,yes,yes,no,yes,yes,yes,yes,yes,no
1642423379646769,HokBen (Hoka Hoka Bento),,False,-6.885460000000001,107.61349399999999," Jl. Ir. H. Juanda No. 179, Dago Bawah, Bandung ", Di bawah Rp. 50.000 /orang ,4.1,5.0,4.5,3.0,3.5,4.5,"Senin - Kamis (08:00 - 24:00), Jumat - Sabtu (08:00 - 02:00), Minggu (08:00 - 24:00)","Tunai,Visa,Master,Debet,Ovo,Dana",yes,yes,yes,yes,no,yes,no,no,yes,no,no
1642423382624239,d'Besto,,False,-6.885082000000001,107.61770600000001," Jl. Tubagus Ismail Raya No. 24, Dago Atas, Bandung ", Di bawah Rp. 50.000 /orang ,3.67,4.2,3.0,4.3,3.5,3.3,Senin - Minggu (08:00 - 22:00),Tunai,no,no,yes,no,no,yes,no,no,no,no,no
1642423386322488,Geulis Boutique Cafe - Geulis Boutique Hotel & Cafe,"[ Barat,Italia,Indonesia ]",False,-6.891278,107.612949," Geulis Boutique Hotel & Cafe, Lantai 1 Jl. Ir. H. Juanda No. 129, Dago Bawah, Bandung ", Rp. 50.000 - Rp. 100.000 /orang ,3.93,4.3,3.7,3.7,4.3,3.7,"Senin - Kamis (07:00 - 18:00), Jumat - Minggu (07:00 - 21:00)","Tunai,Visa,Master,Debet,Go-pay",yes,no,yes,yes,no,yes,yes,yes,yes,no,no
1642423388781674,Ayam Bakar Nusantara,[ Indonesia ],False,-6.8934050000000004,107.61073700000001," Jl. Ganeca (Depan Masjid Salman ITB), Dago Bawah, Bandung ", Di bawah Rp. 50.000 /orang ,3.8,4.0,4.0,4.3,3.3,3.3,Senin - Minggu (09:00 - 20:00),Tunai,no,no,yes,no,no,yes,no,no,no,no,no
1642423390943241,Warunk UpNormal,[ Indonesia ],False,-6.885499,107.61308600000001," Jl. Sumur Bandung No. 20, Dago Bawah, Bandung ", Di bawah Rp. 50.000 /orang ,3.93,4.0,4.0,3.7,4.0,4.0,24 Jam,"Tunai,Visa,Master,Debet,Go-pay,Ovo",yes,no,yes,yes,yes,yes,yes,yes,yes,no,no
1642423393830279,FB & CO Foodbar & Coffee,[ Kafe ],True,-6.900245,107.61503400000001," Dipa Junction Jl. Aria Jipang No. 1 - 3, Dago Bawah, Bandung ", Rp. 50.000 - Rp. 100.000 /orang ,4.2,4.0,4.0,4.5,4.5,4.0,Senin - Minggu (10:00 - 24:00),"Tunai,Visa,Master,Debet,Go-pay,Ovo",yes,no,yes,yes,no,yes,no,yes,yes,no,no
164242339623927,Feast - Sheraton Bandung Hotel & Towers,"[ Barat,Indonesia ]",True,-6.874553,107.619418," Sheraton Bandung Hotel & Towers Jl. Ir. H. Juanda No. 390, Dago Atas, Bandung ", Rp. 100.000 - Rp. 200.000 /orang ,3.8,3.5,4.8,2.8,4.0,4.0,Senin - Minggu (06:00 - 23:00),"Tunai,Visa,Master,Debet",yes,no,yes,yes,no,yes,no,yes,yes,yes,no
1642423399021201,Happy Space,[ Kafe ],True,-6.8761246607525095,107.6," Jl. Cisitu Indah III No. 2, Dago Atas, Bandung ", Di bawah Rp. 50.000 /orang ,4.0,4.5,4.5,4.0,3.5,3.5,Senin - Minggu (07:00 - 21:00),"Tunai,Debet,Go-pay,Ovo,Dana",yes,no,yes,yes,no,yes,no,yes,yes,no,no
1642423400824724,Cafe Aldila,[ Kafe ],True,-6.902392999999999,107.608924," Jl. Hariangbanga No. 5, Dago Bawah, Bandung ", Di bawah Rp. 50.000 /orang ,3.54,3.5,3.5,3.7,3.0,4.0,Senin - Minggu (10:00 - 20:00),"Tunai,Debet,Ovo",yes,no,yes,yes,no,yes,no,yes,yes,no,no
1642423407804211,Bebek Stallone Mas Han,[ Indonesia ],False,-6.894813,107.608843," Jl. Gelap Nyawang No. 10 (Seberang Gedung MBA ITB), Dago Bawah, Bandung ", Di bawah Rp. 50.000 /orang ,4.1,4.5,4.0,4.0,4.5,3.5,Senin - Minggu (17:00 - 24:00),Tunai,no,no,yes,no,no,yes,no,yes,yes,no,no
1642423409607314,Kopi Tahura Djuanda,[ Kafe ],False,-6.85807884499841,107.63," Jl. Dago Pakar Utara No. 401, Dago Atas, Bandung ", Di bawah Rp. 50.000 /orang ,3.9,4.0,5.0,4.5,3.0,3.0,"Senin - Jumat (09:00 - 23:00), Sabtu - Minggu (08:00 - 24:00)","Tunai,Visa,Master,Debet",yes,no,yes,yes,no,yes,no,yes,yes,no,no
1642423412002581,Kami Hari Ini Coffee,[ Kafe ],True,-6.887320735021179,107.61," Jl. Sekeloa Utara No. 74, Dago Atas, Bandung ", Di bawah Rp. 50.000 /orang ,4.0,4.5,4.0,4.5,3.5,3.5,Senin - Minggu (08:00 - 23:00),"Tunai,Debet,Go-pay,Ovo",yes,no,yes,yes,no,yes,no,no,no,no,no
1642423415028768,Oharang BBQ,[ Korea ],False,-6.888767999999999,107.61371000000001," Jl. Ir. H. Juanda No. 138, Dago Bawah, Bandung ", Rp. 100.000 - Rp. 200.000 /orang ,3.62,3.8,3.4,3.4,3.8,3.9,Senin - Minggu (11:00 - 21:00),"Tunai,Debet",no,no,yes,no,no,yes,no,yes,yes,no,no
1642423420173506,MAD Bagel,[ Toko Kue ],False,-6.901441,107.611116," Ruang8 Jl. Ranggamalela No. 8, Dago Bawah, Bandung ", Di bawah Rp. 50.000 /orang ,4.8,5.0,5.0,4.0,5.0,5.0,Senin - Minggu (07:00 - 20:00),"Tunai,Visa,Master,Debet,Go-pay,Ovo,Dana",no,no,no,no,no,yes,no,no,yes,no,no
164242342147562,Jati Kopi,[ Kafe ],False,-6.905034762615003,107.61," Jl. Ir. H. Juanda No. 10, Dago Bawah, Bandung ", Di bawah Rp. 50.000 /orang ,3.93,3.7,4.0,3.3,4.3,4.3,Senin - Minggu (07:00 - 20:00),Tunai,yes,no,yes,yes,no,yes,no,yes,yes,no,no
1642423423933047,Warkop Sadikin,[ Indonesia ],False,-6.879385000000001,107.61271299999999," Jl. Cisitu Lama VIII No. 40, Dago Atas, Bandung ", Di bawah Rp. 50.000 /orang ,4.6,5.0,5.0,5.0,5.0,3.0,24 Jam,Tunai,no,no,yes,no,yes,yes,no,no,no,no,no
1642423427096053,Ayam Bersih Berkah,[ Indonesia ],False,-6.885075,107.617593," Jl. Tubagus Ismail Raya No. 18, Dago Atas, Bandung ", Di bawah Rp. 50.000 /orang ,3.72,3.6,3.0,4.2,4.0,3.8,Senin - Minggu (10:00 - 22:00),Tunai,no,no,yes,no,no,yes,no,no,no,no,no
1642423430971843,Luberger,[ Barat ],True,-6.899092062530684,107.61," Jl. Cikapayang No. 3, Dago Bawah, Bandung ( Alamat Lama: Jl. Ambon No. 21, Riau, Bandung ) ", Di bawah Rp. 50.000 /orang ,3.87,4.3,3.3,3.7,4.3,3.7,"Senin - Jumat (10:00 - 22:00), Sabtu - Minggu (08:00 - 23:00)","Tunai,Debet,Go-pay,Ovo",yes,no,yes,yes,no,yes,no,yes,yes,no,no
1642423434911746,Donat Pops,[ Donat ],False,-6.89784492895032,107.60700000000001," Jl. Kebon Bibit No. 11, Dago Bawah, Bandung ( Alamat Lama: Jl. Kebon Kembang No. 9, Dago Bawah, Bandung ) ", Di bawah Rp. 50.000 /orang ,3.67,4.0,2.8,4.0,3.8,3.7,Senin - Minggu (08:00 - 20:00),Tunai,not sure,not sure,not sure,not sure,not sure,yes,not sure,not sure,not sure,no,no
1642423439120702,Mercusuar Cafe & Resto,[ Kafe ],False,-6.8649960000000005,107.631151," Jl. Lembah Pakar Timur II No. 7, Dago Atas, Bandung ", Rp. 50.000 - Rp. 100.000 /orang ,3.51,3.3,4.4,3.1,2.7,4.0,Senin - Minggu (09:00 - 21:00),"Tunai,Visa,Master,Debet",yes,no,yes,yes,no,yes,yes,yes,yes,no,no
1642423445702869,Cakwe dan Odading Tubagus Ismail,[ Indonesia ],False,-6.883724000000001,107.614755," Jl. Tubagus Ismail (Dekat RM Pagi Sore), Dago Atas, Bandung ", Di bawah Rp. 50.000 /orang ,3.9,4.5,4.0,4.5,3.5,3.0,Senin - Minggu (16:00 - 01:00),Tunai,no,no,yes,no,no,yes,no,no,no,no,no
1642423448418411,Mahidana,[ Kafe ],False,-6.901419000000001,107.611085," Ruang8 Jl. Ranggamalela No. 8, Dago Bawah, Bandung ", Di bawah Rp. 50.000 /orang ,3.68,3.8,3.6,3.2,3.8,4.0,"Senin - Kamis (08:00 - 21:00), Jumat - Minggu (08:00 - 22:00)","Tunai,Visa,Master,Debet,Ovo",yes,no,yes,yes,no,yes,no,yes,yes,no,no
1642423451894597,Angsana,[ Indonesia ],False,-6.898784,107.608631," Balubur Town Square, Lantai 3, Foodcourt Jl. Tamansari No. 33, Dago Bawah, Bandung ", Di bawah Rp. 50.000 /orang ,4.0,4.5,3.5,4.5,3.5,4.0,Senin - Minggu (10:00 - 19:00),"Tunai,Debet,Go-pay,Ovo",no,no,yes,yes,no,yes,no,no,yes,no,no
1642423454230732,RM Lumpia Semarang,[ Indonesia ],False,-6.896819,107.610201," Jl. Badak Singa No. 21, Dago Bawah, Bandung ", Di bawah Rp. 50.000 /orang ,3.65,4.0,4.0,3.0,3.5,3.8,"Senin - Kamis (08:00 - 20:00), Sabtu - Minggu (08:00 - 20:00), Jumat Tutup",Tunai,no,no,yes,no,no,yes,no,yes,yes,no,no
1642423457311403,1933 Dapur & Kopi,[ Kafe ],True,-6.899719999999999,107.610141," Jl. Sulanjana No. 17, Dago Bawah, Bandung ", Di bawah Rp. 50.000 /orang ,4.0,3.5,5.0,3.5,4.0,4.0,Senin - Minggu (10:00 - 20:00),"Tunai,Visa,Master,Debet,Go-pay",yes,no,yes,yes,no,yes,yes,yes,yes,yes,no
1642423459929839,Ayam Geprek Bunda,[ Indonesia ],False,-6.882474,107.615058," Jl. Ir. H. Juanda No. 205, Dago Atas, Bandung ", Di bawah Rp. 50.000 /orang ,3.75,4.0,3.0,4.0,4.0,3.8,Senin - Minggu (10:00 - 21:00),"Tunai,Go-pay,Ovo",no,no,yes,no,no,yes,no,no,no,no,no
1642423462809692,Es Durian Pak Aip / Sakinah,[ Dessert ],False,-6.884025,107.615154," Jl. Tubagus Ismail Raya No. 5G, Dago Atas, Bandung ", Di bawah Rp. 50.000 /orang ,3.9,5.0,3.5,4.5,3.0,3.5,Senin - Minggu (09:00 - 20:30),"Tunai,Ovo",no,no,yes,no,no,yes,no,no,yes,no,no
1642423464540866,Moxy Bar - Moxy Hotel,[ Italia ],False,-6.9003429999999994,107.612105," Moxy Hotel, Lantai Lobby Jl. Ir. H. Juanda No. 69, Dago Bawah, Bandung ", Rp. 50.000 - Rp. 100.000 /orang ,3.8,3.3,4.3,3.3,4.0,4.0,Senin - Minggu (11:00 - 22:00),"Tunai,Debet,Go-pay,Ovo,Dana",yes,no,yes,yes,no,yes,yes,yes,yes,yes,no
1642423466543592,Sliced Pizzeria,[ Barat ],False,-6.901441,107.611116," Jl. Ranggamalela No. 8 (Lantai 2), Dago Bawah, Bandung ", Rp. 50.000 - Rp. 100.000 /orang ,3.6,3.8,4.0,2.8,3.4,4.0,"Senin - Jumat (10:00 - 20:00), Sabtu - Minggu (10:00 - 21:00)","Tunai,Visa,Master,Debet,Go-pay,Ovo",yes,no,yes,yes,no,yes,no,no,yes,no,no
1642423469499149,Angkringan Magelang (Angkringan ITB Ganeca),[ Indonesia ],False,-6.893352,107.60985900000001," Jl. Gelap Nyawang (Depan SME ITB), Dago Bawah, Bandung ", Di bawah Rp. 50.000 /orang ,4.4,5.0,5.0,5.0,4.0,3.0,Senin - Minggu (17:00 - 24:00),Tunai,no,no,yes,no,no,yes,no,no,yes,no,no
1642423471147565,Singgalang Jaya,[ Indonesia ],False,-6.884213000000001,107.614799," Jl. Tubagus Ismail Raya No. 7, Dago Atas, Bandung ", Di bawah Rp. 50.000 /orang ,4.0,4.5,4.0,3.5,4.0,4.0,Senin - Minggu (07:00 - 23:00),Tunai,no,no,yes,no,no,yes,no,yes,no,no,no
1642423473246279,Asa'an Kopi,[ Kafe ],False,-6.851888000000001,107.642894," Jl. Bukit Pakar Utara No. 120, Dago Atas, Bandung ", Di bawah Rp. 50.000 /orang ,4.0,3.5,4.5,4.0,4.0,4.0,"Senin - Kamis (07:30 - 22:30), Jumat - Minggu (07:30 - 23:00)","Tunai,Debet,Go-pay,Ovo,Dana",no,no,yes,yes,no,yes,no,yes,yes,no,no
1642423476252002,Javan Steak,[ Barat ],False,-6.900048,107.611299," Jl. Sulanjana No. 9, Dago Bawah, Bandung ", Di bawah Rp. 50.000 /orang ,3.6,4.3,3.0,4.5,3.5,2.8,Senin - Minggu (16:30 - 21:30),"Tunai,Go-pay,Ovo",no,no,yes,no,no,yes,no,yes,yes,no,no
1642423478986573,Es Shanghai Fadhillah 2,[ Dessert ],False,-6.883789999999999,107.61480700000001," Jl. Tubagus Ismail Raya No. 1, Dago Atas, Bandung ", Di bawah Rp. 50.000 /orang ,3.9,4.5,3.0,5.0,4.5,2.5,Senin - Minggu (09:00 - 21:00),Tunai,no,no,yes,no,no,yes,no,no,yes,no,no
1642423480666826,Seafood Lautan Merah,[ Indonesia ],False,-6.898592,107.61128300000001," Jl. Cikapayang No. 8, Dago Bawah, Bandung ", Di bawah Rp. 50.000 /orang ,3.67,4.0,3.0,5.0,3.7,2.7,Senin - Minggu (11:00 - 23:00),Tunai,no,no,yes,no,no,yes,no,yes,no,no,no
1642423483221311,Dapur Laut,[ Indonesia ],False,-6.894871000000001,107.60938600000001," Jl. Gelap Nyawang No. 3, Dago Bawah, Bandung ", Di bawah Rp. 50.000 /orang ,3.8,4.3,2.7,4.7,4.3,3.0,Senin - Minggu (18:00 - 23:00),Tunai,no,no,yes,no,no,yes,no,no,no,no,no
1642423485340779,De Grote Cafe,[ Kafe ],False,-6.853188,107.647428," Jl. Cibengang No. 27, Dago Atas, Bandung ", Rp. 50.000 - Rp. 100.000 /orang ,4.6,4.0,5.0,5.0,5.0,4.0,Senin - Minggu (08:00 - 22:00),"Tunai,Debet",yes,yes,yes,yes,no,yes,yes,yes,yes,no,no
16424234873289,Kuro - Kuro,[ Indonesia ],False,-6.885236,107.618625," Pujasera Indomaret Jl. Tubagus Ismail Raya No. 32, Dago Atas, Bandung ", Di bawah Rp. 50.000 /orang ,3.67,4.3,3.3,4.3,3.7,2.7,Senin - Minggu (06:00 - 24:00),Tunai,no,no,yes,no,no,yes,no,no,yes,no,no
1642423490149065,Norrdic,[ Kafe ],False,-6.878185,107.613684," Jl. Dago Asri IV No. 4, Dago Atas, Bandung ", Di bawah Rp. 50.000 /orang ,4.6,4.0,5.0,5.0,5.0,4.0,Senin - Minggu (09:00 - 22:00),"Tunai,Ovo",yes,no,yes,no,no,yes,no,yes,yes,no,no
1642423491567621,Cobian Burger,[ Barat ],False,-6.896597,107.613019," Eduplex Co-working Space Jl. Ir. H. Juanda No. 84, Dago Bawah, Bandung ", Di bawah Rp. 50.000 /orang ,4.0,4.5,3.0,4.5,4.0,4.0,Senin - Minggu (11:00 - 23:00),"Tunai,Debet,Go-pay,Ovo",no,no,yes,no,no,yes,no,no,yes,no,no
1642423493160489,Warung Celup,[ Indonesia ],False,-6.886163000000001,107.623157," Jl. Tubagus Ismail Raya No. 153, Dago Atas, Bandung ", Di bawah Rp. 50.000 /orang ,3.47,4.1,3.0,3.5,3.6,3.1,"Senin - Kamis (11:00 - 22:00), Jumat (13:00 - 22:00), Sabtu - Minggu (11:00 - 23:00)","Tunai,Debet,Ovo",no,no,yes,no,no,yes,no,yes,no,no,no
1642423495713706,Nasi Kuning Sumur Bandung,[ Indonesia ],False,-6.88581,107.612697," Jl. Sumur Bandung (Sebrang Tune Hotel), Dago Bawah, Bandung ", Di bawah Rp. 50.000 /orang ,3.8,4.5,3.5,4.5,3.5,3.0,Senin - Minggu (05:00 - 11:00),Tunai,no,no,yes,no,no,yes,no,no,no,no,no
1642423497102677,Dago Bakery,[ Kafe ],False,-6.863396000000001,107.624568," Jl. Ir. H. Juanda No. 497A, Dago Atas, Bandung ", Di bawah Rp. 50.000 /orang ,3.57,3.2,4.2,3.2,3.5,3.8,Senin - Minggu (07:00 - 21:00),"Tunai,Visa,Master,Debet",yes,yes,yes,no,no,yes,yes,yes,yes,no,no
1642423500943368,Lo.Co,[ Kafe ],True,-6.870665,107.61734299999999," Jl. Bukit Dago Selatan No. 51, Dago Atas, Bandung ", Di bawah Rp. 50.000 /orang ,3.8,4.0,5.0,3.0,3.5,3.5,Senin - Minggu (10:00 - 22:00),"Tunai,Master,Debet,Go-pay,Ovo,Dana",yes,no,yes,yes,no,yes,yes,yes,yes,no,no
1642423502638041,Toastina - Sheraton Bandung Hotel & Towers,[ Kafe ],False,-6.874553,107.619418," Sheraton Bandung Hotel & Towers Jl. Ir. H. Juanda No. 390, Dago Atas, Bandung ", Rp. 50.000 - Rp. 100.000 /orang ,3.6,4.0,4.7,2.7,2.7,4.0,Senin - Minggu (11:00 - 23:00),"Tunai,Visa,Master,Debet",yes,no,yes,yes,no,yes,no,yes,yes,yes,no
1642423504746595,Ketoprak Boga Rasa,[ Indonesia ],False,-6.893431,107.611302," Jl. Ganeca (Depan Masjid Salman ITB), Dago Bawah, Bandung ", Di bawah Rp. 50.000 /orang ,3.8,4.0,4.0,4.5,3.0,3.5,Senin - Minggu (09:00 - 16:30),Tunai,no,no,yes,no,no,yes,no,no,no,no,no
1642423506696926,Muara Steak,[ Barat ],False,-6.898712,107.60897," Balubur Town Square, Lantai 3, Foodcourt Jl. Tamansari No. 33, Dago Bawah, Bandung ", Di bawah Rp. 50.000 /orang ,4.6,4.0,4.0,5.0,5.0,5.0,Senin - Minggu (10:00 - 19:00),Tunai,no,no,yes,yes,no,yes,no,no,yes,no,no
1642423508196205,Batagor H. Darto (Simpang Dago),[ Indonesia ],False,-6.884631,107.613979," Pasar Simpang Dago Jl. Ir. H. Juanda No. 200, Dago Atas, Bandung ", Di bawah Rp. 50.000 /orang ,3.55,4.0,3.5,3.8,3.5,3.0,Senin - Minggu (10:00 - 21:00),"Tunai,Go-pay",yes,no,yes,no,no,yes,no,no,no,no,no
1642423511014509,Smooly Juice,[ Minuman ],False,-6.896611726410103,107.61," Jl. Ir. H. Juanda No. 84, Dago Bawah, Bandung ", Di bawah Rp. 50.000 /orang ,3.9,4.5,3.0,4.5,3.5,4.0,Senin - Minggu (09:00 - 21:00),"Tunai,Debet,Go-pay,Ovo,Dana",no,no,yes,no,no,yes,no,no,yes,no,no
1642423512613717,KIRI Social Bar,[ Lounge ],False,-6.885886,107.61281399999999," Jl. Sumur Bandung No. 14, Dago Bawah, Bandung ", Rp. 50.000 - Rp. 100.000 /orang ,4.4,5.0,5.0,3.0,4.0,5.0,Senin - Minggu (06:00 - 24:00),"Tunai,Visa,Master,Debet",yes,no,yes,yes,no,yes,yes,yes,yes,yes,no
1642423514102839,Day & Nite Eatery and Grocery,[ Indonesia ],False,-6.8410210000000005,107.637372," Komplek Pramestha Resort Town Jl. Akaza Utama No. 9, Dago Atas, Bandung ", Di bawah Rp. 50.000 /orang ,3.46,3.4,4.1,3.0,3.3,3.4,Senin - Minggu (10:00 - 22:00),"Tunai,Visa,Master,Debet,Go-pay,Ovo",yes,no,yes,yes,no,yes,no,yes,yes,yes,no
1642423517367993,Morenos,[ Es Krim ],False,-6.897492999999999,107.61221699999999," Kartika Sari, Lantai 1 Jl. Ir. H. Juanda No. 85, Dago Bawah, Bandung ", Di bawah Rp. 50.000 /orang ,3.65,3.8,3.8,3.3,3.5,4.0,Senin - Minggu (09:00 - 20:00),"Tunai,Debet,Go-pay,Ovo",yes,no,no,no,no,yes,no,yes,yes,no,no
164242352018,Madame Sari Restaurant,[ Indonesia ],False,-6.897492999999999,107.61221699999999," Kartika Sari, Lantai 1 Jl. Ir. H. Juanda No. 85, Dago Bawah, Bandung ", Rp. 50.000 - Rp. 100.000 /orang ,3.65,3.8,3.8,3.0,3.8,4.0,Senin - Minggu (09:00 - 20:00),"Tunai,Visa,Master,Debet,Go-pay,Ovo",yes,no,no,no,no,yes,no,yes,yes,no,no
164242352260671,Nasi Goreng Dona,[ Indonesia ],False,-6.88512,107.618075," Jl. Tubagus Ismail Raya No. 26, Dago Atas, Bandung ", Di bawah Rp. 50.000 /orang ,3.7,5.0,3.5,4.0,3.0,3.0,Senin - Minggu (10:00 - 23:00),"Tunai,Go-pay,Ovo",no,no,yes,no,no,yes,no,no,no,no,no
1642423524362141,Dunkin' Donuts,[ Donat ],False,-6.902114999999999,107.611479," Jl. Ir. H. Juanda No. 51, Dago Bawah, Bandung ", Di bawah Rp. 50.000 /orang ,3.67,4.0,3.3,4.0,3.7,3.3,24 Jam,"Tunai,Visa,Master,Debet,Go-pay,Ovo",yes,no,yes,no,yes,yes,no,yes,yes,no,no
1642423526595869,Kozi x Marawa,,False,-6.882109,107.61388400000001," Jl. Kidang Pananjung No. 6, Dago Atas, Bandung ", Di bawah Rp. 50.000 /orang ,3.8,4.0,4.0,4.0,3.0,4.0,"Senin - Jumat (08:00 - 21:00), Sabtu - Minggu (07:00 - 21:00)",Tunai,yes,no,yes,yes,no,yes,no,yes,no,no,no
1642423528588834,Vitamin Sea,[ Indonesia ],False,-6.865105000000001,107.62608," Jl. Raya Golf Dago No. 1, Dago Atas, Bandung ", Di bawah Rp. 50.000 /orang ,3.35,3.3,4.0,3.5,2.6,3.4,Senin - Minggu (13:00 - 22:00),"Tunai,Visa,Master,Debet",yes,yes,yes,yes,no,yes,no,yes,yes,no,no
1642423532050466,Warung Angkringan Narji,[ Indonesia ],False,-6.894839999999999,107.61053700000001," Jl. Gelap Nyawang (Belakang Taman Ganesha), Dago Bawah, Bandung ", Di bawah Rp. 50.000 /orang ,3.9,3.5,3.5,4.5,4.5,3.5,"Senin - Sabtu (17:00 - 24:00), Minggu Tutup",Tunai,no,no,yes,no,no,yes,no,no,yes,no,no
1642423533910762,Shu Guo Yin Xiang,[ China ],False,-6.885678861062448,107.6," Jl. Ir. H. Juanda No. 117, Dago Bawah, Bandung ", Di atas Rp. 200.000 /orang ,3.9,4.5,4.0,2.0,4.5,4.5,Senin - Minggu (11:00 - 22:00),"Tunai,Visa,Master,Debet",not sure,not sure,not sure,not sure,no,not sure,not sure,yes,yes,yes,no
164242353586547,Essentieel Brewing Point,[ Minuman ],True,-6.879246000000001,107.61275900000001," Kedai Koboi Jl. Alpina No. 1, Dago Atas, Bandung ", Di bawah Rp. 50.000 /orang ,3.9,4.0,3.5,4.0,5.0,3.0,Senin - Minggu (16:00 - 23:00),"Tunai,Debet,Go-pay,Ovo",yes,no,yes,no,no,yes,no,no,yes,no,no
1642423537551977,Domino's Pizza,,False,-6.880406,107.61607," Jl. Ir. H. Juanda No. 269A, Dago Atas, Bandung ", Rp. 50.000 - Rp. 100.000 /orang ,3.55,3.8,3.3,4.0,3.5,3.3,Senin - Minggu (10:00 - 24:00),"Tunai,Visa,Master,Debet,Go-pay,Ovo,Dana",no,yes,yes,yes,no,yes,no,yes,yes,no,no
1642423540513624,Gildak,[ Korea ],False,-6.900269610243356,107.61," Dipa Junction Jl. Aria Jipang No. 1 - 3, Dago Bawah, Bandung ", Di bawah Rp. 50.000 /orang ,3.6,4.0,3.0,3.8,3.8,3.5,Senin - Minggu (08:00 - 21:00),"Tunai,Debet,Ovo",no,no,yes,yes,no,yes,no,yes,yes,no,no
1642423542716169,Nasi Bancakan,[ Indonesia ],False,-6.900973,107.61613600000001," Jl. Diponegoro No. 25, Dago Bawah, Bandung ( Alamat Lama: Jl. Trunojoyo No. 62, Trunojoyo, Bandung ) ", Rp. 50.000 - Rp. 100.000 /orang ,3.36,3.5,3.1,3.5,3.5,3.2,Senin - Minggu (10:00 - 22:00),"Tunai,Debet",yes,no,yes,no,no,yes,no,yes,yes,no,no
1642423550389522,Roemah Kue,[ Toko Kue ],False,-6.8911050000000005,107.62708899999998," Jl. Sadang Serang No. 2, Dago Atas, Bandung ( Alamat Lama: Jl. Sadang Sari No. 2, Dago Atas, Bandung ) ", Di bawah Rp. 50.000 /orang ,4.2,5.0,4.0,5.0,4.0,3.0,Senin - Minggu (05:00 - 13:00),Tunai,not sure,not sure,yes,not sure,no,yes,not sure,not sure,not sure,no,no
1642423552279327,MM Juice,[ Indonesia ],False,-6.8939580000000005,107.613573," RS Santo Borromeus, Gedung Irene, Lantai Semi Basement, Foodcourt Jl. Ir. H. Juanda No. 100, Dago Bawah, Bandung ", Rp. 50.000 - Rp. 100.000 /orang ,4.2,5.0,4.0,5.0,5.0,2.0,Senin - Minggu (09:00 - 21:00),"Tunai,Visa,Master,Debet,Ovo,Dana",no,no,no,no,no,yes,no,no,yes,no,no
1642423553332531,Se'i Sapi Kana,[ Indonesia ],False,-6.877585000000001,107.61741200000002," Jl. Ir. H. Juanda No. 342D (Sebelah PHD Dago), Dago Atas, Bandung ", Di bawah Rp. 50.000 /orang ,3.7,4.5,3.5,4.0,3.0,3.5,"Senin - Kamis (11:00 - 21:00), Jumat - Minggu (11:00 - 22:00)",Tunai,no,no,yes,no,no,yes,no,yes,yes,no,no
1642423554950573,Kong Djie Coffee Belitung,[ Kafe ],False,-6.900923,107.60949699999999," Hotel Bumi Sawunggaling Jl. Sawunggaling No. 13, Dago Bawah, Bandung ", Di bawah Rp. 50.000 /orang ,4.2,4.0,5.0,5.0,3.0,4.0,Senin - Minggu (09:00 - 20:00),"Tunai,Visa,Master,Debet,Ovo",yes,no,yes,no,no,yes,no,yes,yes,no,no
1642423556053261,Xi Bo Ba,[ Bubble Tea ],True,-6.886837,107.62359," Jl. Tubagus Ismail Raya No. 17, Dago Atas, Bandung ", Di bawah Rp. 50.000 /orang ,3.55,3.8,3.3,3.8,3.3,3.8,Senin - Minggu (10:00 - 20:00),"Tunai,Go-pay,Ovo",no,no,yes,no,no,yes,no,no,yes,no,no
164242355859981,Nice Day Coffee,[ Kafe ],False,-6.875050999999999,107.61872," Jl. Ir. H. Juanda No. 343, Dago Atas, Bandung ", Di bawah Rp. 50.000 /orang ,4.4,4.0,4.0,5.0,5.0,4.0,Senin - Minggu (10:00 - 23:00),"Tunai,Debet,Go-pay,Ovo",yes,no,yes,yes,no,yes,no,yes,no,no,no
1642423559676475,Warung Langit,[ Indonesia ],False,-6.852722999999999,107.64795600000001," Jl. Cibengang, Dago Atas, Bandung ", Di bawah Rp. 50.000 /orang ,4.4,3.0,5.0,4.0,5.0,5.0,"Senin - Jumat (10:00 - 22:00), Sabtu - Minggu (10:00 - 24:00)",Tunai,no,no,yes,no,no,yes,no,yes,yes,no,no
1642423561693058,Xquisite Resto - The Luxton Bandung,"[ Barat, Indonesia ]",False,-6.903848,107.611287," The Luxton Bandung, Lantai 2 Jl. Ir. H. Juanda No. 18, Dago Bawah, Bandung ", Rp. 100.000 - Rp. 200.000 /orang ,3.8,4.0,4.0,3.0,4.0,4.0,Senin - Minggu (06:00 - 23:00),"Tunai,Visa,Master,Debet",yes,no,yes,no,no,yes,no,yes,yes,yes,no
1642423563329258,Warung Niis,[ Kafe ],False,-6.852978521138937,107.64," Jl. Pasir Cangkudu, Dago Atas, Bandung ", Rp. 50.000 - Rp. 100.000 /orang ,4.2,4.0,5.0,4.0,4.0,4.0,"Selasa - Minggu (13:00 - 20:00), Senin Tutup",Tunai,not sure,not sure,yes,yes,no,yes,not sure,not sure,yes,not sure,no
1642423564977809,Battye's,[ Toko Kue ],False,-6.872126,107.62003," Jl. Ir. H. Juanda No. 416, Dago Atas, Bandung ", Rp. 50.000 - Rp. 100.000 /orang ,4.2,4.0,5.0,4.0,4.0,4.0,"Senin - Jumat (10:00 - 20:00), Sabtu (10:00 - 21:00), Minggu (10:00 - 20:00)","Tunai,Visa,Master,Debet",yes,no,yes,yes,no,yes,no,no,no,no,no
1642423566225284,Fish - Box,[ Barat ],False,-6.895236,107.61145900000001," Banyu Leisure Jl. Ciung Wanara No. 10 (PDAM Tirtawening), Dago Bawah, Bandung ", Di bawah Rp. 50.000 /orang ,3.43,3.3,3.6,3.3,3.6,3.4,Senin - Minggu (08:00 - 22:00),"Tunai,Debet,Go-pay,Ovo,Dana",yes,no,yes,yes,no,yes,no,yes,yes,no,no
1642423569151383,Warung Inul,[ Indonesia ],False,-6.869984,107.63216499999999," Komplek Resort Dago Pakar (Samping Hotel Marbela) Jl. Sentra Dago Pakar Raya, Dago Atas, Bandung ", Di bawah Rp. 50.000 /orang ,3.34,4.0,3.0,3.6,3.6,2.6,Senin - Minggu (08:00 - 21:00),"Tunai,Debet",no,no,yes,no,no,yes,no,no,yes,no,no
1642423571539724,Sari Laut Seafood,[ Indonesia ],False,-6.893433,107.611449," Jl. Ganeca (Depan Masjid Salman), Dago Bawah, Bandung ", Di bawah Rp. 50.000 /orang ,3.7,3.5,4.0,4.5,3.5,3.0,Senin - Minggu (17:00 - 24:00),Tunai,no,no,yes,no,no,yes,no,no,no,no,no
1642423573294611,Nasi Goreng Mawut,[ Indonesia ],False,-6.895676,107.60931000000001," Jl. Tamansari (Seberang Neutron), Dago Bawah, Bandung ", Di bawah Rp. 50.000 /orang ,3.6,4.0,3.0,4.3,4.0,2.7,Senin - Minggu (17:00 - 01:30),Tunai,no,no,yes,no,no,yes,no,no,no,no,no
1642423575086922,Kantin Tong Tong,[ Indonesia ],False,-6.898700999999999,107.60909699999999," Balubur Town Square, Lantai 1 Jl. Tamansari No. 33, Dago Bawah, Bandung ", Di bawah Rp. 50.000 /orang ,3.6,4.0,3.7,3.3,3.7,3.3,Senin - Minggu (09:00 - 21:00),"Tunai,Visa,Master,Debet",yes,no,yes,no,no,yes,no,no,yes,no,no
1642423576514493,RM Pagi Sore,[ Indonesia ],False,-6.883789999999999,107.61480700000001," Jl. Tubagus Ismail Raya No. 1, Dago Atas, Bandung ", Di bawah Rp. 50.000 /orang ,3.6,4.3,3.3,3.0,3.7,3.7,Senin - Minggu (09:00 - 22:00),Tunai,no,no,yes,no,no,yes,no,no,yes,no,no
16424235785342,Ayam Geprek Crisbar,[ Indonesia ],False,-6.8788860000000005,107.61250600000001," Jl. Cisitu Indah No. 2C, Dago Atas, Bandung ", Di bawah Rp. 50.000 /orang ,3.6,4.5,3.5,4.0,3.0,3.0,Senin - Minggu (10:00 - 22:00),"Tunai,Go-pay",yes,no,yes,yes,no,yes,no,yes,yes,no,no
1642423580136055,Sushi Den,[ Jepang ],False,-6.902431,107.60928600000001," Jl. Hariangbanga No. 8, Dago Bawah, Bandung ", Rp. 50.000 - Rp. 100.000 /orang ,3.34,3.6,3.2,3.5,3.1,3.3,"Senin (12:00 - 21:00), Rabu - Minggu (12:00 - 21:00), Selasa Tutup","Tunai,Visa,Master,Debet,Go-pay,Ovo,Dana",yes,no,yes,yes,no,yes,no,yes,yes,no,no
1642423583808118,Rumah Warung Jae,[ Kafe ],False,-6.8518479999999995,107.634597," Jl. Buniwangi No. 68, Dago Atas, Bandung ", Rp. 50.000 - Rp. 100.000 /orang ,3.6,3.3,4.3,3.0,3.3,4.0,Senin - Minggu (10:00 - 18:00),"Tunai,Visa,Master,Debet,Ovo",yes,no,yes,yes,no,yes,no,yes,yes,no,no
1642423585676757,Beermart,[ Lounge ],False,-6.9024600000000005,107.610238," Beermart Jl. Sawunggaling No. 2, Dago Bawah, Bandung ", Di bawah Rp. 50.000 /orang ,4.0,5.0,5.0,3.0,4.0,3.0,Senin - Minggu (12:00 - 02:00),"Tunai,Debet",no,no,yes,no,no,yes,no,no,yes,yes,no
164242358717972,Kedai Koboi,[ Indonesia ],False,-6.894856,107.60989199999999," Jl. Gelap Nyawang (Seberang MBA ITB), Dago Bawah, Bandung ", Di bawah Rp. 50.000 /orang ,4.0,4.0,5.0,5.0,3.0,3.0,Senin - Minggu (11:00 - 02:00),"Tunai,Go-pay,Ovo",no,no,yes,no,no,yes,no,yes,yes,no,no
1642423588499247,Cokotetra,[ Kafe ],False,-6.878503,107.61683300000001," Jl. Ir. H. Juanda No. 322, Dago Atas, Bandung ", Di bawah Rp. 50.000 /orang ,4.0,5.0,5.0,3.0,3.0,4.0,Senin - Minggu (09:00 - 23:00),"Tunai,Debet",yes,no,yes,yes,no,yes,no,yes,no,no,no
1642423590985287,KFC,,False,-6.9017550000000005,107.61223700000001," Superindo Jl. Ir. H. Juanda No. 44, Dago Bawah, Bandung ", Di bawah Rp. 50.000 /orang ,3.53,3.7,4.0,3.0,3.7,3.3,"Senin - Jumat (07:00 - 22:00), Sabtu (07:00 - 24:00), Minggu (07:00 - 22:00)","Tunai,Visa,Master,Debet,Dana",yes,yes,yes,yes,no,yes,no,yes,yes,no,no
164242359338951,KeGeprek,[ Indonesia ],False,-6.884657000000001,107.615016," Jl. Tubagus Ismail Raya (Seberang Wisma BI), Dago Atas, Bandung ", Di bawah Rp. 50.000 /orang ,4.2,5.0,3.0,5.0,4.0,4.0,Senin - Minggu (10:00 - 22:00),"Tunai,Go-pay,Ovo",no,no,yes,no,no,yes,no,no,no,no,no
1642423594855641,Geprek Bensu,[ Indonesia ],False,-6.892900999999999,107.61291999999999," Cafe Dago 109 Jl. Ir. H. Juanda No. 109, Dago Bawah, Bandung ", Di bawah Rp. 50.000 /orang ,3.37,3.9,2.7,3.7,3.3,3.3,"Senin - Sabtu (10:00 - 22:00), Minggu (08:00 - 21:00)",Tunai,no,no,yes,no,no,yes,no,no,yes,no,no
1642423597792187,Thai Palace,[ Thailand ],False,-6.874775,107.618581," Jl. Ir. H. Juanda No. 345, Dago Atas, Bandung ", Rp. 50.000 - Rp. 100.000 /orang ,3.67,4.0,3.3,3.0,4.0,4.0,Senin - Minggu (10:00 - 21:00),"Tunai,Visa,Master,Debet,Go-pay",yes,no,yes,yes,no,yes,yes,yes,yes,yes,no
1642423599864992,Martabak Lucky,[ Indonesia ],False,-6.9026380000000005,107.61013999999999," Jl. Rangga Gading (Depan FMIPA Unisba), Dago Bawah, Bandung ", Di bawah Rp. 50.000 /orang ,4.4,4.0,3.0,5.0,5.0,5.0,Senin - Minggu (17:00 - 24:00),Tunai,no,no,yes,no,no,yes,no,no,no,no,no
1642423601517993,Es Kelapa Si Madu,[ Minuman ],False,-6.895942999999999,107.60931000000001," Jl. Tamansari No. 59, Dago Bawah, Bandung ", Di bawah Rp. 50.000 /orang ,3.7,4.0,3.0,4.5,4.0,3.0,Senin - Minggu (10:00 - 17:00),Tunai,no,no,yes,no,no,yes,no,no,no,no,no
1642423603572107,Warkop Kabita Group,[ Indonesia ],False,-6.874022999999999,107.618675," Jl. Dago Pojok No. 5, Dago Atas, Bandung ", Di bawah Rp. 50.000 /orang ,4.0,5.0,4.0,4.0,4.0,3.0,24 Jam,Tunai,no,no,yes,no,yes,yes,no,no,no,no,no
1642423605016052,Magic Pizza,[ Italia ],False,-6.8939580000000005,107.613573," RS Santo Borromeus, Gedung Elizabeth, Lantai 1, Foodlife Jl. Ir. H. Juanda No. 100, Dago Bawah, Bandung ", Di bawah Rp. 50.000 /orang ,3.7,3.5,3.5,4.0,3.0,4.5,"Senin - Kamis (08:00 - 20:00), Jumat - Sabtu (08:00 - 21:00), Minggu (08:00 - 20:00)","Tunai,Visa,Master,Debet",no,no,no,yes,no,yes,no,no,yes,no,no
1642423606853554,Orbital Dago,[ Indonesia ],False,-6.868283,107.627931," Jl. Rancakendal Luhur No. 7, Dago Atas, Bandung ", Di bawah Rp. 50.000 /orang ,4.0,4.0,5.0,4.0,4.0,3.0,Senin - Minggu (08:00 - 20:00),"Tunai,Visa,Master,Debet",yes,no,yes,no,no,yes,no,yes,yes,no,no
1642423608295122,Sate Padang Pariaman Takana Juo,[ Indonesia ],False,-6.895841000000001,107.60940500000001," Jl. Tamansari (Seberang Neutron), Dago Bawah, Bandung ", Di bawah Rp. 50.000 /orang ,3.35,4.3,3.5,2.8,3.5,2.8,Senin - Minggu (16:00 - 24:00),Tunai,no,no,yes,no,no,yes,no,no,no,no,no
1642423610377251,Blacking Coffee,[ Kafe ],True,-6.885224000000001,107.619101," Jl. Tubagus Ismail Raya No. 40, Dago Atas, Bandung ", Di bawah Rp. 50.000 /orang ,4.2,4.0,4.0,4.0,5.0,4.0,Senin - Minggu (08:00 - 21:00),Tunai,yes,no,yes,yes,no,yes,no,no,yes,no,no
1642423611780886,Soto & Ayam Goreng Ganesha,[ Indonesia ],False,-6.893319,107.611122," Jl. Ganeca (Depan Masjid Salman ITB), Dago Bawah, Bandung ", Di bawah Rp. 50.000 /orang ,3.6,4.0,3.5,4.0,3.0,3.5,Senin - Minggu (06:00 - 23:00),Tunai,no,no,yes,no,no,yes,no,no,no,no,no
1642423613799345,Waroeng Bebek Ngarasan,[ Indonesia ],False,-6.885000999999999,107.617695," Jl. Tubagus Ismail Raya No. 21, Dago Atas, Bandung ", Di bawah Rp. 50.000 /orang ,3.7,3.5,3.5,4.0,3.5,4.0,Senin - Minggu (10:00 - 22:00),Tunai,no,no,yes,yes,no,yes,no,no,no,no,no
1642423615395874,Bakmie SR,[ Indonesia ],False,-6.893447,107.61123799999999," Jl. Ganeca (Depan Masjid Salman ITB), Dago Bawah, Bandung ", Di bawah Rp. 50.000 /orang ,3.5,4.5,3.5,3.5,3.0,3.0,Senin - Minggu (10:00 - 16:00),Tunai,no,no,yes,no,no,yes,no,no,no,no,no
1642423618047433,Calais Nu,[ Bubble Tea ],False,-6.893916,107.613651," RS Santo Borromeus, Gedung Elizabeth, Lantai 1, Foodlife Jl. Ir. H. Juanda No. 100, Dago Bawah, Bandung ", Di bawah Rp. 50.000 /orang ,3.53,4.0,3.3,2.7,4.0,3.7,"Senin - Kamis (08:00 - 20:00), Jumat - Sabtu (08:00 - 21:00), Minggu (08:00 - 20:00)","Tunai,Visa,Master,Debet",no,no,no,yes,no,yes,no,no,yes,no,no
1642423620308347,Ngopi Doeloe,[ Kafe ],True,-6.884063,107.611639," Jl. Sangkuriang No. 6, Dago Atas, Bandung ( Alamat Lama: Jl. Teuku Umar No. 5, Dipatiukur, Bandung ) ", Rp. 50.000 - Rp. 100.000 /orang ,3.5,3.5,4.5,3.0,2.5,4.0,Senin - Minggu (10:00 - 20:00),"Tunai,Visa,Master,Debet,Go-pay,Ovo",yes,no,yes,no,no,yes,no,yes,yes,no,no
1642423622661455,Soto Ayam Rasa Koya Madura - Pak Imam,[ Indonesia ],False,-6.904503999999999,107.60819," Jl. Tamansari No. 6 - 8 (Samping Gerbang Kampus II UNPAS Tamansari), Dago Bawah, Bandung ", Di bawah Rp. 50.000 /orang ,3.7,4.5,2.0,4.5,4.5,3.0,"Senin - Sabtu (07:30 - 17:00), Minggu Tutup",Tunai,no,no,yes,no,no,yes,no,no,no,no,no
1642423625291813,Kantin Sahati,[ Indonesia ],False,-6.895693,107.606429," Jl. Kebon Bibit No. 47, Dago Bawah, Bandung ", Di bawah Rp. 50.000 /orang ,3.6,3.5,3.5,4.0,3.0,4.0,"Selasa - Minggu (10:00 - 21:00), Senin Tutup",Tunai,no,yes,yes,no,no,yes,no,no,no,no,no
1642423627481176,Chatime,[ Bubble Tea ],False,-6.898744000000001,107.609016," Balubur Town Square, Lantai Dasar 2, Ace Hardware Jl. Tamansari No. 33, Dago Bawah, Bandung ", Di bawah Rp. 50.000 /orang ,3.47,4.7,2.7,3.3,3.3,3.3,Senin - Minggu (10:00 - 22:00),"Tunai,Visa,Master,Debet",no,no,yes,yes,no,yes,no,no,yes,no,no
1642423630116555,Paberik Martabak,[ Indonesia ],False,-6.877527000000001,107.61737," Jl. Ir. H. Juanda No. 342, Dago Atas, Bandung ", Di bawah Rp. 50.000 /orang ,4.2,4.0,3.0,5.0,5.0,4.0,Senin - Minggu (15:00 - 03:00),"Tunai,Go-pay,Ovo",no,no,yes,no,no,yes,no,no,yes,no,no
1642423631728263,Tombo Lapar,[ Indonesia ],False,-6.883083999999999,107.611201," Jl. Cisitu Lama (Samping Kecamatan Coblong), Dago Atas, Bandung ", Di bawah Rp. 50.000 /orang ,3.8,5.0,4.0,4.0,3.0,3.0,Senin - Minggu (16:00 - 24:00),Tunai,no,no,yes,no,no,yes,no,no,no,no,no
1642423632909586,Kuro - Kuro,[ Indonesia ],False,-6.879882,107.61193700000001," Kedai Bunda Jl. Cisitu Lama No. 31, Dago Atas, Bandung ", Di bawah Rp. 50.000 /orang ,3.8,5.0,4.0,4.0,3.0,3.0,"Senin - Sabtu (09:00 - 20:00), Minggu (13:00 - 20:00)",Tunai,no,no,yes,no,no,yes,no,no,no,no,no
1642423634397845,Baso Jewol Abah,[ Indonesia ],False,-6.886163000000001,107.623157," Jl. Tubagus Ismail Raya No. 153 (Depan Warung Celup), Dago Atas, Bandung ", Di bawah Rp. 50.000 /orang ,3.36,3.8,2.8,3.8,3.4,3.0,"Selasa - Minggu (11:30 - 21:00), Senin Tutup",Tunai,no,no,yes,no,no,yes,no,no,no,no,no
1642423636951881,Warung Gaul Kameumeut,[ Indonesia ],False,-6.880575,107.61197299999999," Jl. Cisitu Lama No. 40, Dago Atas, Bandung ", Di bawah Rp. 50.000 /orang ,3.8,4.0,5.0,4.0,3.0,3.0,24 Jam,Tunai,no,no,yes,no,yes,yes,no,no,no,no,no
1642423638544395,De' Chick Fried Chicken,,False,-6.904216,107.60826599999999," Jl. Tamansari (Seberang Unisba), Dago Bawah, Bandung ", Di bawah Rp. 50.000 /orang ,4.0,4.0,3.0,5.0,5.0,3.0,"Senin - Sabtu (09:00 - 15:00), Minggu Tutup",Tunai,no,no,yes,no,no,yes,no,no,no,no,no
1642423639690516,Restoran Simpang Raya,[ Indonesia ],False,-6.901624000000001,107.61161399999999," Jl. Ir. H. Juanda No. 55, Dago Bawah, Bandung ", Di bawah Rp. 50.000 /orang ,4.0,5.0,3.0,4.0,4.0,4.0,Senin - Minggu (09:00 - 21:00),"Tunai,Visa,Master,Debet,Ovo",no,no,yes,yes,no,yes,yes,yes,yes,no,no
1642423641058105,BSD (Batagor Simpang Dago),[ Indonesia ],False,-6.884164999999999,107.614148," Pasar Simpang Dago Jl. Ir. H. Juanda No. 218, Dago Atas, Bandung ", Di bawah Rp. 50.000 /orang ,3.6,4.0,3.0,4.0,3.5,3.5,Senin - Minggu (09:00 - 22:00),"Tunai,Visa,Master,Debet,Go-pay,Ovo",yes,no,yes,no,no,yes,no,yes,no,no,no
1642423644000151,Sugar & Spice - The Luxton Bandung,[ Toko Kue dan Roti ],False,-6.903848,107.611287," The Luxton Bandung, Lantai Lobby Jl. Ir. H. Juanda No. 18, Dago Bawah, Bandung ", Di bawah Rp. 50.000 /orang ,4.0,4.0,4.0,4.0,4.0,4.0,Senin - Minggu (07:00 - 22:00),"Tunai,Visa,Master,Debet",yes,no,no,no,no,yes,no,no,yes,no,no
1642423645271015,Locarasa,[ Es Krim ],False,-6.893517999999999,107.6125," Warung Pasta Jl. Ganeca No. 4, Dago Bawah, Bandung ", Di bawah Rp. 50.000 /orang ,4.0,4.0,4.0,4.0,4.0,4.0,"Senin - Kamis (09:00 - 23:00), Jumat - Minggu (07:00 - 23:00)","Tunai,Visa,Master,Debet,Go-pay,Ovo",yes,no,yes,yes,no,yes,no,no,yes,no,no
1642423646584334,Tou Cafe,[ Kafe ],False,-6.887161,107.62355500000001," Jl. Tubagus Ismail Raya No. 9, Dago Atas, Bandung ", Di bawah Rp. 50.000 /orang ,4.0,4.0,4.0,4.0,4.0,4.0,Senin - Minggu (10:00 - 22:00),"Tunai,Debet,Go-pay,Ovo",yes,no,yes,yes,no,yes,no,yes,yes,no,no
164242364767722,Warung De'Tuik,[ Indonesia ],False,-6.916405,107.66856899999999," Ruko Puri Dago, Blok A No. 17, Antapani Walk Jl. Terusan Jakarta, Antapani, Bandung ", Di bawah Rp. 50.000 /orang ,4.0,4.0,4.0,4.0,4.0,4.0,Senin - Minggu (09:30 - 19:30),Tunai,not sure,not sure,not sure,not sure,no,yes,not sure,not sure,not sure,no,no
1642423649021543,BIIRU (Not a Sushi Bar),,False,-6.900453,107.61493899999999," Dipa Junction Jl. Aria Jipang No. 1 - 3, Dago Bawah, Bandung ", Di bawah Rp. 50.000 /orang ,4.0,4.0,4.0,4.0,4.0,4.0,Senin - Minggu (14:00 - 21:00),"Tunai,Debet",yes,no,yes,yes,no,yes,no,no,yes,yes,no
1642423650568158,Manpuku Coffee & Eatery,[ Kafe ],False,-6.883728883341888,107.61," Jl. Tubagus Ismail - Depan No. 87, Dago Atas, Bandung ", Di bawah Rp. 50.000 /orang ,4.0,4.0,4.0,4.0,4.0,4.0,"Selasa - Minggu (12:00 - 19:00), Senin Tutup","Tunai,Ovo",yes,no,yes,yes,no,yes,no,yes,yes,no,no
1642423653795742,Waroeng Lereng Keraton,[ Indonesia ],False,-6.8465300000000004,107.655052," Jl. Ciberuk (Pintu Masuk Lereng Keraton), Dago Atas, Bandung ", Di bawah Rp. 50.000 /orang ,3.6,3.5,4.0,3.0,4.0,3.5,"Senin - Jumat (08:00 - 23:00), Sabtu - Minggu (08:00 - 24:00)",Tunai,no,no,yes,yes,no,yes,no,yes,yes,no,no
1642423655498249,Kuro - Kuro,[ Indonesia ],False,-6.899058,107.60898200000001," Jl. Kebon Kembang (Samping Balubur Town Square), Dago Bawah, Bandung ", Di bawah Rp. 50.000 /orang ,3.5,4.5,3.0,3.5,3.5,3.0,Senin - Minggu (07:00 - 17:00),Tunai,no,no,yes,no,no,yes,no,no,no,no,no
1642423657213979,RM Citra Minang,[ Indonesia ],False,-6.884995,107.619028," Jl. Tubagus Ismail Raya No. 41, Dago Atas, Bandung ", Di bawah Rp. 50.000 /orang ,3.8,5.0,4.0,3.0,4.0,3.0,Senin - Minggu (10:00 - 23:00),Tunai,no,no,yes,no,no,yes,no,no,no,no,no
1642423658627375,MCCF (Mulya Cirebon Chinese Food),[ China ],False,-6.884142999999999,107.614768," Jl. Tubagus Ismail Raya No. 2D, Dago Atas, Bandung ", Di bawah Rp. 50.000 /orang ,3.8,5.0,4.0,3.0,4.0,3.0,Senin - Minggu (10:00 - 24:00),"Tunai,Ovo",no,no,yes,no,no,yes,no,yes,no,no,no
1642423660447254,Martabak Legit Group,[ Indonesia ],False,-6.902064,107.608084," Jl. Tamansari No. 7, Dago Bawah, Bandung ", Di bawah Rp. 50.000 /orang ,3.8,5.0,4.0,3.0,3.0,4.0,Senin - Minggu (16:00 - 23:00),Tunai,no,no,yes,no,no,yes,no,no,no,no,no
1642423661972936,Warteg Mba Reni,[ Indonesia ],False,-6.885089999999999,107.61713700000001," Jl. Tubagus Ismail Raya No. 8, Dago Atas, Bandung ", Di bawah Rp. 50.000 /orang ,3.8,4.0,4.0,5.0,3.0,3.0,Senin - Minggu (08:00 - 22:00),Tunai,no,no,yes,no,no,yes,no,no,no,no,no
1642423663617057,Sangucitel,[ Indonesia ],False,-6.898722,107.60896799999999," Balubur Town Square, Lantai 3, The Kiosk Food Market Jl. Tamansari No. 33, Dago Bawah, Bandung ", Di bawah Rp. 50.000 /orang ,3.5,3.5,4.0,3.5,3.5,3.0,Senin - Minggu (10:30 - 18:30),"Tunai,Visa,Master,Debet",yes,no,yes,yes,no,yes,no,yes,yes,no,no
1642423665348841,CFC,,False,-6.890128999999999,107.60763999999999," Kebun Binatang Bandung Jl. Tamansari, Dago Bawah, Bandung ", Di bawah Rp. 50.000 /orang ,3.8,4.0,5.0,3.0,3.0,4.0,Senin - Minggu (08:00 - 16:00),"Tunai,Debet",no,no,yes,yes,no,yes,no,no,yes,no,no
1642423666792062,Kopitema Nusantara,[ Kafe ],False,-6.887015043579407,107.62," Jl. Tubagus Ismail Raya No. 15, Dago Atas, Bandung ", Di bawah Rp. 50.000 /orang ,4.0,4.0,3.0,5.0,4.0,4.0,Senin - Minggu (10:00 - 20:00),"Tunai,Visa,Master,Debet,Go-pay,Ovo",yes,no,yes,yes,no,yes,no,yes,yes,no,no
1642423668668093,Martabak Special Lucky,[ Indonesia ],False,6.2087634000000005,106.84559899999," Jl. Tamansari, Dago Bawah, Bandung ", Di bawah Rp. 50.000 /orang ,4.0,5.0,3.0,3.0,5.0,4.0,not listed,Tunai,not sure,not sure,yes,no,no,yes,no,no,no,no,no
1642423670054834,Bakso Barokah 186,[ Indonesia ],False,-6.873474000000001,107.61374599999999," Jl. Cisitu Indah VI No. 186, Dago Atas, Bandung ", Di bawah Rp. 50.000 /orang ,4.0,3.0,3.0,5.0,5.0,4.0,"Senin - Kamis (11:00 - 21:00), Sabtu - Minggu (11:00 - 21:00), Jumat Tutup","Tunai,Go-pay,Ovo",yes,no,yes,no,no,yes,no,yes,no,no,no
1642423671197292,Scenery Bar & Lounge - The Jayakarta Suites,"[ Barat,Indonesia ]",False,-6.870857000000001,107.619575," The Jayakarta Suites Jl. Ir. H. Juanda No. 381A, Dago Atas, Bandung ", Rp. 100.000 - Rp. 200.000 /orang ,4.0,4.0,4.0,3.0,4.0,5.0,Senin - Mingu (10:00 - 23:00),"Tunai,Visa,Master,Debet",yes,no,yes,no,no,yes,no,yes,yes,yes,no
1642423672583545,Senemu 2.2,[ Kafe ],True,-6.875158,107.618908," Jl. Ir. H. Juanda No. 374, Dago Atas, Bandung ", Di bawah Rp. 50.000 /orang ,3.5,3.5,3.5,4.0,4.0,2.5,"Senin (10:00 - 22:00), Rabu - Kamis (10:00 - 22:00), Jumat - Minggu (10:00 - 23:00), Selasa Tutup","Tunai,Debet",yes,no,yes,yes,no,yes,no,yes,yes,no,no
1642423674442317,Kue Balok Parikesit,[ Indonesia ],False,-6.904125,107.60828300000001," Jl. Tamansari (Seberang Unisba), Dago Bawah, Bandung ", Di bawah Rp. 50.000 /orang ,3.47,3.7,3.0,3.3,3.7,3.7,Senin - Minggu (10:00 - 18:00),Tunai,no,no,yes,no,no,yes,no,no,no,no,no
1642423676569842,Martabak Al Yaman,[ Indonesia ],False,-6.883313,107.61129199999999," Jl. Cisitu Lama (Samping Kecamatan Coblong), Dago Atas, Bandung ", Di bawah Rp. 50.000 /orang ,3.8,5.0,3.0,4.0,4.0,3.0,Senin - Minggu (16:00 - 24:00),Tunai,no,no,yes,no,no,yes,no,no,no,no,no
164242367796045,Surabi Cihapit,[ Indonesia ],False,-6.875096000000001,107.61893400000001," Jl. Ir. H. Juanda No. 374, Dago Atas, Bandung ", Di bawah Rp. 50.000 /orang ,3.8,5.0,3.0,4.0,4.0,3.0,Senin - Minggu (08:00 - 22:00),"Tunai,Go-pay,Ovo",no,no,yes,no,no,yes,no,no,yes,no,no
1642423679485079,Point Cafe,[ Kafe ],False,-6.8852899999999995,107.618724," Indomaret Jl. Tubagus Ismail Raya No. 32, Dago Atas, Bandung ", Di bawah Rp. 50.000 /orang ,3.8,4.0,4.0,4.0,4.0,3.0,Senin - Minggu (07:00 - 23:00),"Tunai,Visa,Master,Debet",no,no,yes,yes,no,yes,no,no,yes,no,no
1642423681298097,HokBen (Hoka Hoka Bento) Express,,False,-6.893916,107.613651," RS Santo Borromeus, Gedung Irene, Lantai Semi Basement, Foodcourt Jl. Ir. H. Juanda No. 100, Dago Bawah, Bandung ", Rp. 50.000 - Rp. 100.000 /orang ,3.8,5.0,3.0,4.0,3.0,4.0,Senin - Minggu (09:00 - 20:00),"Tunai,Visa,Master,Debet",no,no,no,no,no,yes,no,no,yes,no,no
1642423682807325,Ayam Goreng dan Bakar Pringgodani,[ Indonesia ],False,-6.879859,107.61617700000001," Jl. Ir. H. Juanda No. 275, Dago Atas, Bandung ", Di bawah Rp. 50.000 /orang ,3.8,5.0,3.0,4.0,4.0,3.0,Senin - Minggu (08:00 - 21:00),"Tunai,Debet,Ovo",no,yes,yes,no,no,yes,no,yes,yes,no,no
1642423684575865,Dreezel Coffee,[ Kafe ],False,-6.884197892171208,107.6," Jl. Tubagus Ismail Raya No. 7, Dago Atas, Bandung ", Di bawah Rp. 50.000 /orang ,3.8,4.0,4.0,4.0,3.0,4.0,not listed,Tunai,not sure,not sure,not sure,not sure,not sure,yes,not sure,not sure,not sure,no,no
1642423685716951,Warung Dalaraos,[ Indonesia ],False,-6.88445,107.60624299999999," Jl. Siliwangi No. 43, Dago Bawah, Bandung ", Di bawah Rp. 50.000 /orang ,3.6,4.0,3.0,3.0,4.0,4.0,Senin - Minggu (08:00 - 17:00),"Tunai,Debet",no,no,yes,no,no,yes,no,yes,yes,no,no
1642423688968141,Bubur Ayam Pak Zaenal,[ Indonesia ],False,-6.883030000000001,107.614989," Jl. Ir. H. Juanda No. 244, Dago Atas, Bandung ", Di bawah Rp. 50.000 /orang ,3.33,4.0,3.3,3.3,3.3,2.7,Senin - Minggu (06:00 - 24:00),"Tunai,Ovo",no,no,yes,no,no,yes,no,no,no,no,no
1642423691103409,Seafood Kanayakan,[ Indonesia ],False,-6.877667999999999,107.618127," Jl. Kanayakan No. 344/3, Dago Atas, Bandung ", Di bawah Rp. 50.000 /orang ,3.4,3.5,3.5,4.5,2.5,3.0,"Senin - Kamis (11:30 - 22:30), Jumat (15:00 - 22:30), Sabtu (11:30 - 22:30), Minggu Tutup",Tunai,no,no,yes,no,no,yes,no,no,no,no,no
1642423692952428,HokBen (Hoka Hoka Bento),,False,-6.898700999999999,107.60909699999999," Balubur Town Square, Lantai 1 Jl. Tamansari No. 33, Dago Bawah, Bandung ", Rp. 50.000 - Rp. 100.000 /orang ,3.3,4.0,3.0,3.3,3.3,3.0,Senin - Minggu (10:00 - 21:00),"Tunai,Visa,Master,Debet",no,no,yes,no,no,yes,no,no,yes,no,no
1642423695348593,Waroeng Cobek Aneka,[ Indonesia ],False,-6.879705,107.61208799999999," Jl. Cisitu Lama No. 54A, Dago Atas, Bandung ", Di bawah Rp. 50.000 /orang ,3.33,4.0,2.7,4.0,3.0,3.0,Senin - Minggu (10:00 - 22:00),Tunai,no,no,yes,no,no,yes,no,no,no,no,no
1642423697207681,Kantin Citra Bahari,[ Indonesia ],False,-6.884361,107.61486299999999," Jl. Tubagus Ismail Raya No. 2H, Dago Atas, Bandung ", Di bawah Rp. 50.000 /orang ,3.8,4.0,3.0,5.0,3.0,4.0,Senin - Minggu (08:00 - 24:00),Tunai,no,no,yes,no,no,yes,no,no,no,no,no
1642423698527033,Merawat Kopi,[ Kafe ],False,-6.885712,107.61896000000002," Jl. Ciheulang Baru I No. 12, Dago Atas, Bandung ", Di bawah Rp. 50.000 /orang ,3.8,4.0,3.0,5.0,4.0,3.0,Senin - Minggu (11:00 - 02:00),Tunai,no,no,yes,no,no,yes,no,no,no,no,no
1642423700237483,Pizza Hut Delivery (PHD),,False,-6.877541000000001,107.617396," Jl. Ir. H. Juanda No. 342, Dago Atas, Bandung ", Rp. 50.000 - Rp. 100.000 /orang ,3.8,5.0,3.0,3.0,4.0,4.0,Senin - Minggu (10:00 - 02:00),"Tunai,Visa,Master,Debet,Go-pay,Ovo",yes,yes,yes,yes,no,yes,no,yes,yes,no,no
1642423701628937,Dapur Oseng Mercon Unisba,[ Indonesia ],False,-6.9036669999999996,107.60834299999999," Jl. Tamansari, Dago Bawah, Bandung ", Di bawah Rp. 50.000 /orang ,3.8,4.0,3.0,5.0,5.0,2.0,not listed,Tunai,not sure,not sure,not sure,not sure,no,yes,not sure,not sure,not sure,no,no
1642423702718447,North Dago Cafe - The Jayakarta Suites,"[ Barat,Indonesia ]",False,-6.870857000000001,107.619575," The Jayakarta Suites Jl. Ir. H. Juanda No. 381A, Dago Atas, Bandung ", Rp. 100.000 - Rp. 200.000 /orang ,3.8,4.0,4.0,3.0,4.0,4.0,Senin - Minggu (06:00 - 23:00),"Tunai,Visa,Master,Debet",yes,no,yes,no,no,yes,no,yes,yes,yes,no
1642423704347931,Lumens Kopi Masjid,[ Kafe ],False,-6.894549589488674,107.61," Jl. Gelap Nyawang No. 4 (Selasar Selatan Kompleks Masjid Salman ITB), Dago Bawah, Bandung ", Di bawah Rp. 50.000 /orang ,3.8,4.0,4.0,3.0,4.0,4.0,Senin - Minggu (08:00 - 20:00),"Tunai,Debet,Go-pay,Ovo",yes,no,yes,yes,no,yes,no,yes,yes,no,no
1642423705682818,Nasi Goreng Mas Danang,[ Indonesia ],False,-6.901278,107.615568," Jl. Diponegoro (Depan Gedung PPPPTK IPA), Dago Bawah, Bandung ", Di bawah Rp. 50.000 /orang ,3.8,4.0,4.0,3.0,4.0,4.0,Senin - Minggu (19:00 - 01:00),Tunai,no,no,yes,no,no,yes,no,no,no,no,no
1642423707107168,Spicywon Korean Street Food,[ Korea ],False,-6.904205923452222,107.6," Jl. Tamansari Bawah No. 1, Dago Bawah, Bandung ", Di bawah Rp. 50.000 /orang ,3.5,4.0,2.5,4.0,4.0,3.0,Senin - Minggu (12:00 - 19:00),Tunai,no,no,yes,no,no,yes,no,no,no,no,no
1642423708809197,Prabhu Indian Food & Kebuli,[ India ],False,-6.899258000000001,107.615081," Jl. Prabu Dimuntur No. 18, Dago Bawah, Bandung ", Rp. 50.000 - Rp. 100.000 /orang ,4.0,4.0,3.0,3.0,5.0,5.0,"Senin - Jumat (11:00 - 19:30), Sabtu - Minggu (11:00 - 20:30)","Tunai,Visa,Master,Debet,Go-pay,Ovo,Dana",yes,no,yes,yes,no,yes,no,yes,yes,yes,no
1642423710146631,Go Milk,[ Minuman ],False,-6.893449,107.61147," Jl. Ganeca (Depan Masjid Salman ITB), Dago Bawah, Bandung ", Di bawah Rp. 50.000 /orang ,3.6,5.0,3.0,4.0,3.0,3.0,Senin - Minggu (10:00 - 18:00),Tunai,no,no,yes,no,no,yes,no,no,no,no,no
1642423711641571,Nasi Goreng Ghusti 69,[ Indonesia ],False,-6.878765,107.60926699999999," Jl. Sangkuriang Dalam (Dekat Asrama ITB Sangkuriang), Dago Atas, Bandung ", Di bawah Rp. 50.000 /orang ,3.6,5.0,3.0,4.0,3.0,3.0,Senin - Minggu (16:00 - 03:00),"Tunai,Go-pay,Ovo",no,no,yes,no,no,yes,no,no,no,no,no
1642423712916594,Roti Boss,[ Indonesia ],False,-6.9040539999999995,107.608303," Jl. Tamansari (Seberang Unisba), Dago Bawah, Bandung ", Di bawah Rp. 50.000 /orang ,3.6,4.0,4.0,4.0,3.0,3.0,"Senin - Sabtu (07:00 - 18:00), Minggu Tutup",Tunai,no,no,yes,no,no,yes,no,no,no,no,no
1642423714353683,Kantin Tegal Abadi,[ Indonesia ],False,-6.877142999999999,107.61764199999999," Jl. Ir. H. Juanda No. 346 (Depan Dago Show Car Wash), Dago Atas, Bandung ", Di bawah Rp. 50.000 /orang ,3.6,4.0,4.0,4.0,3.0,3.0,24 Jam,Tunai,no,no,yes,no,yes,yes,no,no,no,no,no
1642423715803071,Warung Nasi Uduk 86,[ Indonesia ],False,-6.89346,107.611515," Jl. Ganeca (Depan Masjid Salman), Dago Bawah, Bandung ", Di bawah Rp. 50.000 /orang ,3.6,3.0,5.0,4.0,3.0,3.0,Senin - Minggu (17:00 - 24:00),Tunai,no,no,yes,no,no,yes,no,no,no,no,no
1642423717288924,Bossku Culinary,[ Indonesia ],False,-6.8859509999999995,107.622729," Jl. Tubagus Ismail No. 86, Dago Atas, Bandung ", Di bawah Rp. 50.000 /orang ,3.8,4.0,2.0,5.0,4.0,4.0,Senin - Minggu (16:00 - 24:00),Tunai,no,no,yes,no,no,yes,no,no,yes,no,no
1642423718913239,Warung Baksil,[ Indonesia ],True,-6.885441,107.61043500000001," Jl. Siliwangi Dalam (Samping Kantor Kelurahan), Dago Bawah, Bandung ", Di bawah Rp. 50.000 /orang ,3.6,4.0,5.0,2.0,4.0,3.0,Senin - Minggu (08:00 - 24:00),Tunai,no,no,yes,no,no,yes,no,no,yes,no,no
1642423720340656,Sate Taichan Goreng,[ Indonesia ],True,-6.900945,107.608719," Jl. Tamansari No. 19A, Dago Bawah, Bandung ", Di bawah Rp. 50.000 /orang ,3.15,3.7,3.2,2.6,3.1,3.1,Senin - Minggu (10:00 - 21:00),"Tunai,Debet",no,no,no,no,no,yes,no,yes,yes,no,no
1642423725285606,Surya Bundo,[ Indonesia ],False,-6.873374,107.61964099999999," Jl. Ir. H. Juanda No. 400, Dago Atas, Bandung ", Di bawah Rp. 50.000 /orang ,3.4,4.0,3.0,3.5,3.0,3.5,"Senin - Sabtu (14:00 - 02:00), Minggu Tutup",Tunai,no,no,yes,no,no,yes,no,no,no,no,no
1642423726981953,FOW Food On Wall,[ Kafe ],False,-6.905309691923441,107.61," Jl. Ir. H. Juanda No. 8, Dago Bawah, Bandung ", Di bawah Rp. 50.000 /orang ,3.4,4.0,3.0,3.5,2.5,4.0,"Senin (11:00 - 19:00), Rabu - Minggu (11:00 - 19:00), Selasa Tutup","Tunai,Visa,Master,Debet,Go-pay",yes,no,yes,yes,no,yes,no,yes,yes,no,no
1642423728964973,Mie Kocok Kebon Jukut,[ Indonesia ],False,-6.898722,107.60896799999999," Balubur Town Square, Lantai 3, The Kiosk Food Market Jl. Tamansari No. 33, Dago Bawah, Bandung ", Di bawah Rp. 50.000 /orang ,3.8,4.0,3.0,4.0,4.0,4.0,Senin - Minggu (10:30 - 18:30),"Tunai,Visa,Master,Debet",yes,no,yes,yes,no,yes,no,yes,yes,no,no
1642423730053704,Bubur Temuru,[ Indonesia ],False,-6.880506,107.61633400000001," Jl. Ir. H. Juanda No. 278, Dago Bawah, Bandung ", Di bawah Rp. 50.000 /orang ,3.8,4.0,3.0,4.0,4.0,4.0,Senin - Minggu (14:30 - 20:30),Tunai,not sure,not sure,not sure,no,no,yes,no,not sure,no,no,no
1642423732680865,Daily Box,,False,-6.8996759999999995,107.61016299999999," Graha Persib Jl. Sulanjana No. 17, Dago Bawah, Bandung ", Di bawah Rp. 50.000 /orang ,3.8,4.0,3.0,4.0,4.0,4.0,not listed,Tunai,not sure,not sure,not sure,not sure,not sure,yes,not sure,not sure,not sure,no,no
1642423734326853,Bennana,[ Indonesia ],False,-6.887174000000001,107.623466," Jl. Tubagus Ismail Raya No. 7, Dago Atas, Bandung ", Di bawah Rp. 50.000 /orang ,3.8,4.0,3.0,4.0,4.0,4.0,not listed,Tunai,not sure,not sure,not sure,not sure,not sure,yes,not sure,not sure,not sure,no,no
164242373593666,Ipok Aleuh,[ Kafe ],False,-6.841827725747738,107.65," Jl. Bukit Pakar Utara No. 150, Dago Atas, Bandung ", Di bawah Rp. 50.000 /orang ,3.8,4.0,3.0,4.0,4.0,4.0,"Selasa - Minggu (10:00 - 22:00), Senin Tutup",Tunai,no,no,yes,yes,no,yes,no,no,yes,no,no
1642423737445569,Martabak Manis & Asin Royal Jaya,[ Indonesia ],False,-6.899437,107.61013600000001," Jl. Sulanjana (Seberang Graha Persib), Dago Bawah, Bandung ", Di bawah Rp. 50.000 /orang ,3.8,4.0,3.0,4.0,4.0,4.0,Senin - Minggu (17:00 - 23:00),Tunai,no,no,yes,no,no,yes,no,no,no,no,no
1642423738983495,GIS Kopi,[ Kafe ],False,-6.912283400000001,107.65893390000002," Ruko Sentra Dago Jl. Sentra Dago Raya No. 1A, Antapani, Bandung ", Di bawah Rp. 50.000 /orang ,3.8,4.0,3.0,4.0,4.0,4.0,"Senin - Jumat (10:00 - 22:00), Sabtu - Minggu (10:00 - 24:00)",Tunai,yes,no,yes,no,no,yes,no,yes,yes,no,no
1642423740905523,Warteg Aero,[ Indonesia ],False,-6.884109,107.61475700000001," Jl. Tubagus Ismail Raya (Seberang Ayamayaman), Dago Atas, Bandung ", Di bawah Rp. 50.000 /orang ,3.8,3.0,4.0,4.0,5.0,3.0,24 Jam,Tunai,no,no,yes,no,yes,yes,no,no,no,no,no
1642423742413269,Tempat Makan Bandung,[ Kafe ],False,-6.847815560342928,107.62," Jl. Dago Giri No. 90, Dago Atas, Bandung ", Di bawah Rp. 50.000 /orang ,3.8,3.0,4.0,4.0,4.0,4.0,"Senin - Kamis (12:00 - 21:00), Jumat (13:00 - 22:00), Sabtu - Minggu (10:00 - 22:00)",Tunai,not sure,not sure,not sure,yes,no,yes,not sure,not sure,yes,no,no
1642423743987244,Glek Glek,[ Minuman ],False,-6.877679,107.617222," Jl. Ir. H. Juanda No. 342, Dago Atas, Bandung ", Di bawah Rp. 50.000 /orang ,3.5,3.5,3.0,3.5,3.5,4.0,Senin - Minggu (11:00 - 23:00),Tunai,no,no,yes,no,no,yes,no,no,no,no,no
1642423745709553,Es Shanghai Fadhillah,[ Dessert ],False,-6.88475,107.6151," Jl. Tubagus Ismail Raya (Seberang Wisma BI), Dago Atas, Bandung ", Di bawah Rp. 50.000 /orang ,3.4,5.0,4.0,3.0,3.0,2.0,Senin - Minggu (09:00 - 21:00),Tunai,no,no,yes,no,no,yes,no,no,no,no,no
1642423746964106,Angkringan Cisitu,[ Indonesia ],False,-6.876417,107.611795," Jl. Cisitu Indah II No. 16, Dago Atas, Bandung ", Di bawah Rp. 50.000 /orang ,3.3,3.5,4.0,3.0,2.5,3.5,Senin - Minggu (17:00 - 02:00),Tunai,no,no,yes,no,no,yes,no,no,yes,no,no
1642423748778759,Donat Madu Cihanjuang,[ Donat ],False,-6.875058,107.618982," Jl. Ir. H. Juanda No. 374, Dago Atas, Bandung ", Di bawah Rp. 50.000 /orang ,3.4,4.0,2.5,4.0,3.0,3.5,Senin - Minggu (07:30 - 21:00),"Tunai,Ovo",no,no,yes,no,no,yes,no,no,no,no,no
1642423750645398,RM Diwo,[ Indonesia ],False,-6.86985,107.62054499999999," Jl. Ir. H. Juanda No. 438A, Dago Atas, Bandung ", Di bawah Rp. 50.000 /orang ,3.6,4.0,3.0,5.0,3.0,3.0,24 Jam,"Tunai,Visa,Master,Debet,Go-pay,Ovo",yes,no,yes,yes,yes,yes,no,yes,yes,no,no
1642423752116586,RM Mie Baso Panghegar,[ Indonesia ],False,-6.878789,107.616721," Jl. Ir. H. Juanda No. 318, Dago Atas, Bandung ", Di bawah Rp. 50.000 /orang ,3.6,4.0,3.0,5.0,3.0,3.0,"Senin - Sabtu (11:00 - 20:00), Minggu Tutup",Tunai,no,no,yes,no,no,yes,no,no,no,no,no
1642423753370058,Sarang Korean BBQ,[ Korea ],False,-6.898700999999999,107.60909699999999," Balubur Town Square, Lantai 3, Foodcourt Jl. Tamansari No. 33, Dago Bawah, Bandung ", Di bawah Rp. 50.000 /orang ,3.6,4.0,3.0,5.0,3.0,3.0,Senin - Minggu (10:00 - 19:00),"Tunai,Debet",no,no,yes,yes,no,yes,no,no,yes,no,no
164242375488223,AFC,,False,-6.879801,107.611946," Jl. Cisitu Lama (Depan Indomaret Cisitu Lama), Dago Atas, Bandung ", Di bawah Rp. 50.000 /orang ,3.6,4.0,3.0,5.0,3.0,3.0,Senin - Minggu (08:00 - 21:00),Tunai,no,no,yes,no,no,yes,no,no,yes,no,no
1642423756378648,Ramen Cemen,[ Jepang ],False,-6.901441395005428,107.61," Ruang8 Jl. Ranggamalela No. 8, Dago Bawah, Bandung ", Di bawah Rp. 50.000 /orang ,3.4,3.5,3.5,3.0,3.5,3.5,"Senin - Jumat (15:00 - 22:00), Sabtu - Minggu (13:00 - 22:00)","Tunai,Debet,Go-pay,Ovo",yes,no,yes,yes,no,yes,no,no,yes,no,no
1642423758324608,Kabobs,[ Arab/Timur Tengah ],False,-6.879225,107.616629," Jl. Ir. H. Juanda No. 310, Dago Atas, Bandung ", Di bawah Rp. 50.000 /orang ,3.2,4.0,3.0,3.3,2.3,3.3,"Senin - Jumat (10:00 - 22:30), Sabtu - Minggu (10:00 - 23:00)","Tunai,Debet,Go-pay,Ovo",no,no,yes,no,no,yes,no,no,yes,no,no
1642423760718462,Duri Durian,[ Dessert ],False,-6.86981,107.62050500000001," Jl. Ir. H. Juanda No. 438A, Dago Atas, Bandung ", Di bawah Rp. 50.000 /orang ,3.4,3.0,3.0,3.7,3.7,3.7,Senin - Minggu (10:00 - 21:00),"Tunai,Go-pay",no,no,yes,no,no,yes,no,no,yes,no,no
1642423762709304,Warung Sitinggil,[ Indonesia ],False,-6.847682000000001,107.628099," Jl. Dago Giri No. 90, Dago Atas, Bandung ", Di bawah Rp. 50.000 /orang ,3.06,3.1,3.9,3.3,2.6,2.4,"Selasa - Minggu (12:00 - 22:00), Senin Tutup",Tunai,no,no,yes,no,no,yes,no,yes,yes,no,no
1642423766456805,Qwerty Koffie,[ Kafe ],False,-6.880321,107.61635," Jl. Ir. H. Juanda No. 284, Dago Atas, Bandung ", Di bawah Rp. 50.000 /orang ,3.5,3.0,3.5,3.0,4.0,4.0,Senin - Minggu (10:00 - 22:00),Tunai,yes,no,yes,yes,no,yes,no,no,no,no,no
1642423768453223,Geprekan Maspur,[ Indonesia ],False,-6.894017,107.60851799999999," Jl. Ganeca (Depan BNI), Dago Bawah, Bandung ", Di bawah Rp. 50.000 /orang ,3.3,3.5,3.0,4.5,2.5,3.0,Senin - Minggu (10:00 - 18:00),Tunai,no,yes,yes,no,no,yes,no,no,no,no,no
1642423770343408,Situ Jaya,[ Indonesia ],False,-6.87972,107.612004," Jl. Cisitu Lama No. 33, Dago Atas, Bandung ", Di bawah Rp. 50.000 /orang ,3.4,4.0,4.0,4.0,3.0,2.0,Senin - Minggu (10:00 - 22:00),Tunai,no,no,yes,no,no,yes,no,no,no,no,no
1642423771771274,Nasi Kuning Ibu Omas,[ Indonesia ],False,-6.893441,107.61137099999999," Jl. Ganeca (Depan Masjid Salman ITB), Dago Bawah, Bandung ", Di bawah Rp. 50.000 /orang ,3.4,4.0,5.0,2.0,3.0,3.0,Senin - Minggu (06:00 - 14:30),Tunai,no,no,yes,no,no,yes,no,no,no,no,no
1642423773401397,O Em Je!,[ Indonesia ],False,-6.874609129293147,107.61," Jl. Ir. H. Juanda No. 386, Dago Atas, Bandung ", Di bawah Rp. 50.000 /orang ,3.6,4.0,3.0,4.0,3.0,4.0,Senin - Minggu (10:30 - 22:00),Tunai,not sure,not sure,not sure,not sure,no,not sure,not sure,not sure,not sure,no,no
1642423774706327,Karkus Roti Bakar Premium,[ Indonesia ],False,-6.8776115978438375,107.61," Jl. Kanayakan No. 344, Dago Atas, Bandung ", Di bawah Rp. 50.000 /orang ,3.6,4.0,3.0,4.0,3.0,4.0,Senin - Minggu (07:00 - 22:30),Tunai,not sure,not sure,yes,no,no,yes,no,no,no,no,no
1642423776106624,Cociks,[ Minuman ],False,-6.880255,107.612049," Jl. Cisitu Lama No. 48, Dago Atas, Bandung ", Di bawah Rp. 50.000 /orang ,3.6,4.0,3.0,4.0,4.0,3.0,Senin - Minggu (10:00 - 21:00),Tunai,no,no,yes,no,no,yes,no,no,no,no,no
1642423777728524,Tomodachi Bakery Corner,[ Toko Roti dan Kue ],False,-6.897381,107.613056," Jl. Ir. H. Juanda No. 72, Dago Bawah, Bandung ", Di bawah Rp. 50.000 /orang ,3.4,3.5,3.5,3.0,4.0,3.0,Senin - Minggu (10:00 - 23:00),"Tunai,Visa,Master,Debet,Go-pay,Ovo",yes,no,yes,yes,no,yes,no,no,yes,no,no
1642423780302157,Nasi Oseng,[ Indonesia ],False,-6.898722,107.60896799999999," Balubur Town Square, Lantai 3, The Kiosk Food Market Jl. Tamansari No. 33, Dago Bawah, Bandung ", Di bawah Rp. 50.000 /orang ,3.6,4.0,4.0,3.0,3.0,4.0,Senin - Minggu (10:30 - 18:30),"Tunai,Visa,Master,Debet",yes,no,yes,yes,no,yes,no,yes,yes,no,no
1642423781331937,Dapur Soto Odjolali,[ Indonesia ],False,-6.8934050000000004,107.61073700000001," Jl. Ganeca (Depan Masjid Salman ITB), Dago Bawah, Bandung ", Di bawah Rp. 50.000 /orang ,3.6,3.0,4.0,4.0,4.0,3.0,"Senin - Kamis (10:00 - 21:00), Sabtu - Minggu (10:00 - 21:00), Jumat Tutup",Tunai,no,no,yes,no,no,yes,no,no,no,no,no
1642423782583559,Magic Oven,[ Toko Roti dan Kue ],False,-6.893916,107.613651," RS Santo Borromeus, Gedung Elizabeth, Lantai 1, Foodlife Jl. Ir. H. Juanda No. 100, Dago Bawah, Bandung ", Di bawah Rp. 50.000 /orang ,3.8,4.0,3.0,3.0,4.0,5.0,"Senin - Kamis (08:00 - 20:00), Jumat - Sabtu (08:00 - 21:00), Minggu (08:00 - 20:00)","Tunai,Visa,Master,Debet",no,no,no,yes,no,yes,no,no,yes,no,no
1642423783613933,Talago Biru,[ Indonesia ],False,-6.883675,107.61411799999999," Jl. Ir. H. Juanda (Depan Bank BJB), Dago Atas, Bandung ", Di bawah Rp. 50.000 /orang ,3.4,5.0,2.0,5.0,3.0,2.0,Senin - Minggu (16:30 - 22:20),Tunai,no,no,yes,no,no,yes,no,no,no,no,no
1642423785035721,Kantin Ibu Olis,[ Indonesia ],False,-6.8801559999999995,107.61203799999998," Jl. Cisitu Lama No. 50, Dago Atas, Bandung ", Di bawah Rp. 50.000 /orang ,3.4,4.0,4.0,3.0,3.0,3.0,"Senin - Jumat (09:00 - 21:00), Minggu (09:00 - 21:00), Sabtu Tutup",Tunai,no,no,yes,no,no,yes,no,no,no,no,no
1642423786380233,Priangan Mie Ceker,[ Indonesia ],False,-6.884983999999999,107.62046399999998," Seulawah Coffee Jl. Tubagus Ismail Raya No. 49, Dago Atas, Bandung ", Di bawah Rp. 50.000 /orang ,3.4,4.0,4.0,3.0,3.0,3.0,Senin - Minggu (09:00 - 24:00),Tunai,yes,no,yes,yes,no,yes,no,yes,yes,no,no
1642423787932638,Martabak Bangka Bang Bewo,[ Indonesia ],False,-6.8788279999999995,107.61646699999999," Jl. Ir. H. Juanda (Depan Darul Hikam), Dago Atas, Bandung ", Di bawah Rp. 50.000 /orang ,3.4,4.0,4.0,3.0,3.0,3.0,Senin - Minggu (18:00 - 24:00),Tunai,no,no,yes,no,no,yes,no,no,no,no,no
1642423789513181,Sosis Kraton,[ Indonesia ],False,-6.854381,107.64569099999999," Jl. Cibengang No. 17, Dago Atas, Bandung ", Rp. 50.000 - Rp. 100.000 /orang ,3.0,3.4,4.2,2.4,2.0,3.0,"Selasa - Minggu (10:00 - 20:00), Senin Tutup","Tunai,Visa,Master,Debet",yes,no,yes,yes,no,yes,no,yes,yes,no,no
1642423793238714,Ketoprak Telor Khas Jakarta Mas Ule,[ Indonesia ],False,-6.885008999999999,107.618498," Jl. Tubagus Ismail Raya (Depan No. 33), Dago Atas, Bandung ", Di bawah Rp. 50.000 /orang ,3.6,4.0,3.0,3.0,5.0,3.0,Senin - Minggu (07:00 - 15:00),Tunai,no,no,yes,no,no,yes,no,no,no,no,no
1642423794752479,Martabak Special Legit Group,[ Indonesia ],False,-6.885128999999999,107.617997," Jl. Tubagus Ismail No. 26, Dago Atas, Bandung ", Di bawah Rp. 50.000 /orang ,3.6,3.0,4.0,3.0,4.0,4.0,Senin - Minggu (16:00 - 24:00),Tunai,no,no,yes,no,no,yes,no,no,no,no,no
1642423796094309,Mie Ayam Sobur,[ Indonesia ],False,-6.884674,107.613948," Jl. Ir. H. Juanda (Simpang Dago Atas), Dago Atas, Bandung ", Di bawah Rp. 50.000 /orang ,3.6,3.0,4.0,3.0,5.0,3.0,Senin - Minggu (17:00 - 24:00),Tunai,no,no,yes,no,no,yes,no,no,no,no,no
1642423797594163,Pasco Passion of Chocolate,[ Minuman ],False,-6.8934050000000004,107.61073700000001," Jl. Ganeca (Depan Masjid Salman ITB), Dago Bawah, Bandung ", Di bawah Rp. 50.000 /orang ,3.3,3.0,3.0,4.0,3.5,3.0,Senin - Minggu (08:00 - 20:00),Tunai,no,no,yes,no,no,yes,no,no,no,no,no
1642423799330782,Nasi Goreng Pawon Radja Magelangan,[ Indonesia ],False,-6.882391999999999,107.61175300000001," Jl. Cisitu Lama No. 10 (Depan Sunan Salon), Dago Atas, Bandung ", Di bawah Rp. 50.000 /orang ,3.4,4.0,3.0,4.0,3.0,3.0,Senin - Minggu (17:00 - 24:00),Tunai,no,no,yes,no,no,yes,no,no,no,no,no
1642423801354395,Sangu Meneer,[ Indonesia ],False,-6.898722,107.60896799999999," Balubur Town Square, Lantai 3, The Kiosk Food Market Jl. Tamansari No. 33, Dago Bawah, Bandung ", Di bawah Rp. 50.000 /orang ,3.4,4.0,3.0,4.0,3.0,3.0,Senin - Minggu (10:30 - 18:30),"Tunai,Visa,Master,Debet",yes,no,yes,yes,no,yes,no,yes,yes,no,no
1642423802790274,Saung Kuring,[ Indonesia ],False,-6.887524000000001,107.623678," Jl. Terusan Tubagus Ismail No. 1, Dago Atas, Bandung ", Di bawah Rp. 50.000 /orang ,3.4,4.0,3.0,4.0,3.0,3.0,Senin - Minggu (09:00 - 21:00),Tunai,no,no,yes,no,no,yes,no,no,yes,no,no
1642423804185707,Bread.Co,[ Toko Roti dan Kue ],False,-6.87402,107.61911599999999," Yomart Dago Jl. Ir. H. Juanda No. 353, Dago Atas, Bandung ", Di bawah Rp. 50.000 /orang ,3.4,4.0,3.0,4.0,3.0,3.0,24 Jam,"Tunai,Visa,Master,Debet",no,no,no,no,yes,yes,no,no,no,no,no
1642423805565612,RM Sarilamak,[ Indonesia ],False,-6.894889999999999,107.61098," Jl. Gelap Nyawang No. 3, Dago Bawah, Bandung ", Di bawah Rp. 50.000 /orang ,3.4,4.0,3.0,4.0,3.0,3.0,"Senin - Sabtu (09:30 - 21:00), Minggu Tutup",Tunai,no,no,yes,no,no,yes,no,no,yes,no,no
1642423806959144,Nokcha Korean Dessert,[ Dessert ],False,-6.898700999999999,107.60909699999999," Balubur Town Square, Lantai 3, Foodcourt Jl. Tamansari No. 33, Dago Bawah, Bandung ", Di bawah Rp. 50.000 /orang ,3.2,3.5,3.0,4.0,3.0,2.5,Senin - Minggu (10:00 - 20:00),"Tunai,Visa,Master,Debet",no,no,yes,yes,no,yes,no,no,yes,no,no
1642423808444157,Nasi Goreng Istiqomah,[ Indonesia ],False,-6.87965,107.612146," Gudang Kebun Jl. Cisitu Lama No. 54B, Dago Atas, Bandung ", Di bawah Rp. 50.000 /orang ,3.4,3.0,4.0,4.0,3.0,3.0,Senin - Minggu (16:00 - 23:00),Tunai,no,no,yes,no,no,yes,no,no,yes,no,no
1642423809774029,RM Putra Minang,[ Indonesia ],False,-6.884989,107.618393," Jl. Tubagus Ismail Raya No. 31, Dago Atas, Bandung ", Di bawah Rp. 50.000 /orang ,3.4,3.0,4.0,4.0,3.0,3.0,Senin - Minggu (11:00 - 23:00),Tunai,no,no,yes,no,no,yes,no,no,no,no,no
164242381137818,Bakso Sultan,[ Indonesia ],False,-6.8846940000000005,107.61361399999998," Yagami Ramen House, Lantai 3 Jl. Ir. H. Juanda No. 185, Dago Atas, Bandung ", Di bawah Rp. 50.000 /orang ,3.13,3.7,2.7,4.0,2.3,3.0,Senin - Minggu (10:00 - 22:00),"Tunai,Ovo",no,no,yes,no,no,yes,no,yes,yes,no,no
1642423813655469,Wellsteak,"[ Barat,Italia ]",False,-6.900061999999999,107.61174199999999," Sultown Jl. Sulanjana No. 5, Dago Bawah, Bandung ", Rp. 50.000 - Rp. 100.000 /orang ,3.6,3.0,3.0,4.0,4.0,4.0,Senin - Minggu (12:00 - 21:30),Tunai,yes,no,yes,yes,no,yes,yes,yes,yes,no,no
1642423815318683,The Gourmet Burger Club,[ Barat ],False,-6.901455926392648,107.61," Ruang8 Jl. Ranggamalela No. 8, Dago Bawah, Bandung ( Alamat Lama: Jl. Lodaya No. 65, Burangrang, Bandung ) ", Di bawah Rp. 50.000 /orang ,3.3,3.5,3.0,3.0,3.5,3.5,Senin - Minggu (10:00 - 21:00),"Tunai,Debet,Go-pay,Ovo",no,no,yes,no,no,yes,no,no,yes,no,no
1642423816704566,Ade Laksana,[ Indonesia ],False,-6.893796000000001,107.608825," Jl. Ganeca (Samping Bank BNI), Dago Bawah, Bandung ", Di bawah Rp. 50.000 /orang ,3.4,3.0,4.0,3.0,4.0,3.0,Senin - Minggu (06:30 - 19:00),Tunai,no,no,yes,no,no,yes,no,no,no,no,no
1642423818259115,Lullathai,[ Minuman ],False,-6.898784,107.608631," Balubur Town Square, Lantai 3, Foodcourt Jl. Tamansari No. 33, Dago Bawah, Bandung ", Di bawah Rp. 50.000 /orang ,3.6,3.0,3.0,3.0,5.0,4.0,Senin - Minggu (10:00 - 19:00),Tunai,no,no,yes,yes,no,yes,no,no,yes,no,no
1642423819576224,Soda - The 101 Hotel,"[ Barat,Italia ]",False,-6.906282000000001,107.610398," The 101 Hotel, Lantai Lobby Jl. Ir. H. Juanda No. 3, Dago Bawah, Bandung ", Rp. 50.000 - Rp. 100.000 /orang ,3.13,2.7,4.3,2.3,3.0,3.3,"Senin - Jumat (11:00 - 23:00), Sabtu - Minggu (11:00 - 24:00)","Tunai,Visa,Master,Debet,Ovo",yes,no,yes,yes,no,yes,yes,yes,yes,yes,no
1642423822293216,Ayam Acep Xpress,[ Indonesia ],False,-6.894965680161778,107.61," Jl. Gelap Nyawang (Seberang Masjid Salman ITB), Dago Bawah, Bandung ", Di bawah Rp. 50.000 /orang ,3.4,4.0,2.0,4.0,4.0,3.0,Senin - Minggu (15:00 - 21:00),Tunai,not sure,not sure,not sure,not sure,no,yes,not sure,not sure,not sure,no,no
1642423823711507,Mie Saus Ahoy,[ Indonesia ],False,-6.878649,107.612604," Jl. Cisitu Indah No. 4, Dago Atas, Bandung ", Di bawah Rp. 50.000 /orang ,3.2,4.0,3.0,3.0,3.0,3.0,Senin - Minggu (09:00 - 21:00),"Tunai,Go-pay,Ovo",yes,no,yes,yes,no,yes,no,no,yes,no,no
